,관리기관명,소재지도로명주소,소재지지번주소,설치목적구분,카메라대수,카메라화소수,촬영방면정보,보관일수,설치년월,관리기관전화번호,위도,경도,데이터기준일자,제공기관코드,제공기관명
160,강원도 동해시청,강원도 동해시,강원도 동해시 효가동 361-35,쓰레기단속,1,200.0,양지마을 훼미리가구뒤 쓰레기투기,30.0,201712,033-530-2912,37.50360901,129.10854009999997,2020-06-17,4210000,강원도 동해시
161,강원도 동해시청,강원도 동해시 양지1길 2-2,강원도 동해시 효가동 362-124,생활방범,1,800.0,양지마을 경로당 (어안),30.0,201906,033-530-2912,37.50373101,129.107912,2020-06-17,4210000,강원도 동해시
162,강원도 동해시청,강원도 동해시,강원도 동해시 효가동 459-3,생활방범,4,200.0,북삼자율방범대앞 삼거리 (북고방향) [4010],30.0,201805,033-530-2912,37.49452993,129.1077897,2020-06-17,4210000,강원도 동해시
163,강원도 동해시청,강원도 동해시 효가리본길 7,강원도 동해시 효가동 467-4,생활방범,1,200.0,효가경로당 앞,30.0,201812,033-530-2912,37.49377101,129.107025,2020-06-17,4210000,강원도 동해시
164,강원도 동해시청,강원도 동해시,강원도 동해시 효가동 471,생활방범,3,130.0,더프라임진입로 (7번국도방향),30.0,201309,033-530-2912,37.49708023,129.1085122,2020-06-17,4210000,강원도 동해시
165,강원도 동해시청,강원도 동해시,강원도 동해시 효가동 472,생활방범,1,130.0,심씨열녀각,30.0,201501,033-530-2912,37.49728684,129.1063403,2020-06-17,4210000,강원도 동해시
166,강원도 동해시청,강원도 동해시,강원도 동해시 효가동 473-92,생활방범,2,1200.0,효가공원 (어안) [4043],30.0,201912,033-530-2912,37.49467589,129.1057031,2020-06-17,4210000,강원도 동해시
167,강원도 동해시청,강원도 동해시,강원도 동해시 효가동 산16-1,생활방범,3,200.0,양지마을입구 (7번국도 회전),30.0,201708,033-530-2912,37.50381001,129.1069601,2020-06-17,4210000,강원도 동해시
169,서수원칠보체육관(수원도시공사),경기도수원시권선구서수원로577번길171(금곡동),경기도수원시권선구금곡동1071(서수원칠보체육관),다목적,59,3000000.0,"서수원칠보제육관내,외",30.0,201602,031-259-5414,37.27628877,126.9483135,2020-06-10,B553891,수원도시공사
1128,서울특별시 중랑구청,서울특별시 중랑구 겸재로10길 5,서울특별시 중랑구 면목5동 172-30,생활방범,3,200.0,0,30.0,201408,02-2094-0284,37.58382386,127.0783195,2020-05-06,3060000,서울특별시 중랑구
1167,서울특별시 중랑구청,서울특별시 중랑구 동일로95길 62,서울특별시 중랑구 면목5동 194-59,생활방범,1,200.0,0,30.0,201408,02-2094-0284,37.58454251,127.0760875,2020-05-06,3060000,서울특별시 중랑구
1207,서울특별시 중랑구청,서울특별시 중랑구 동일로91길 6-18,서울특별시 중랑구 면목5동 172-103,생활방범,1,200.0,0,30.0,201302,02-2094-0284,37.58372902,127.079254,2020-05-06,3060000,서울특별시 중랑구
1318,서울특별시 중랑구청,서울특별시 중랑구 동일로96가길 14,서울특별시 중랑구 면목5동 160-11,생활방범,1,200.0,0,30.0,201408,02-2094-0284,37.58419037,127.081337,2020-05-06,3060000,서울특별시 중랑구
1515,인천광역시 중구청,인천광역시 중구 영종대로27번길 9,인천광역시 중구 운서동 2747-5,생활방범,3,200.0,360도전방면,30.0,201807,032-760-7102,37.4964387135,126.48058780299999,2020-07-02,3490000,인천광역시 중구
1516,인천광역시 중구청,인천광역시 중구 자유공원로 106-8,인천광역시 중구 송학동1가 11-1,생활방범,1,200.0,360도전방면,30.0,201801,032-760-7102,37.478877671199996,126.6246307765,2020-07-02,3490000,인천광역시 중구
1517,인천광역시 중구청,인천광역시 중구 자유공원로 106-8,인천광역시 중구 송학동1가 11-1,생활방범,1,200.0,360도전방면,30.0,201801,032-760-7102,37.478877671199996,126.6246307765,2020-07-02,3490000,인천광역시 중구
1518,인천광역시 중구청,인천광역시 중구 참외전로 151,인천광역시 중구 인현동 1-400,생활방범,3,200.0,360도전방면,30.0,201812,032-760-7102,37.473799632600006,126.6338267506,2020-07-02,3490000,인천광역시 중구
1519,인천광역시 중구청,인천광역시 중구 백운로 107번길 24-7,인천광역시 중구 운남동 1-14,생활방범,3,200.0,360도전방면,30.0,201812,032-760-7102,37.5005038896,126.5433694457,2020-07-02,3490000,인천광역시 중구
1522,인천광역시 중구청,인천광역시 중구 백운로 110-16,인천광역시 중구 중산동1225-13,생활방범,3,200.0,360도전방면,30.0,201812,032-760-7102,37.5023858749,126.5444843834,2020-07-02,3490000,인천광역시 중구
1523,인천광역시 중구청,인천광역시 중구 논골1길 9,인천광역시 중구 운북동28-1,생활방범,3,200.0,360도전방면,30.0,201812,032-760-7102,37.5105932536,126.5391909788,2020-07-02,3490000,인천광역시 중구
1525,인천광역시 중구청,인천광역시 중구 제물량로 271,인천광역시 중구 북성동1가 3-61,생활방범,3,200.0,360도전방면,30.0,201812,032-760-7102,37.4761721662,126.61711497520001,2020-07-02,3490000,인천광역시 중구
1529,인천광역시 중구청,인천광역시 중구 백운로 96-12,인천광역시 중구 중산동 1392-22,생활방범,3,200.0,360도전방면,30.0,201812,032-760-7102,37.5013992188,126.54657577190001,2020-07-02,3490000,인천광역시 중구
1530,인천광역시 중구청,인천광역시 중구 개항로53번길 45-2,인천광역시 중구 내동49-1,생활방범,3,200.0,360도전방면,30.0,201812,032-760-7102,37.4743945552,126.6281396733,2020-07-02,3490000,인천광역시 중구
1531,인천광역시 중구청,인천광역시 중구 율목로 8번길 8-20,인천광역시 중구 율목동 248-7,생활방범,3,200.0,360도전방면,30.0,201812,032-760-7102,37.469086666399996,126.63534642260001,2020-07-02,3490000,인천광역시 중구
1532,인천광역시 중구청,인천광역시 중구 율목로 24,인천광역시 중구 율목동 245-29,생활방범,3,200.0,360도전방면,30.0,201812,032-760-7102,37.4691702866,126.6332524683,2020-07-02,3490000,인천광역시 중구
1533,인천광역시 중구청,인천광역시 중구 자유공원로 28-7,인천광역시 중구 전동 19-3,생활방범,3,200.0,360도전방면,30.0,201812,032-760-7102,37.4757096176,126.62801106100001,2020-07-02,3490000,인천광역시 중구
1534,인천광역시 중구청,인천광역시 중구 도원로30번길 12,인천광역시 중구 도원동 30-13,생활방범,3,200.0,360도전방면,30.0,201812,032-760-7102,37.4668775948,126.6377535819,2020-07-02,3490000,인천광역시 중구
1537,인천광역시 중구청,인천광역시 중구 운남로223번길 4,인천광역시 중구 운남동 476-14,생활방범,3,200.0,360도전방면,30.0,201812,032-760-7102,37.4972987479,126.5356675468,2020-07-02,3490000,인천광역시 중구
1538,인천광역시 중구청,인천광역시 중구 백운로 187,인천광역시 중구 운남동 603-6,생활방범,3,200.0,360도전방면,30.0,201812,032-760-7102,37.504425853,126.5370981726,2020-07-02,3490000,인천광역시 중구
1539,인천광역시 중구청,인천광역시 중구 신포로31번길 6,인천광역시 중구 관동3가 1-11,생활방범,3,200.0,360도전방면,30.0,201812,032-760-7102,37.471995539299996,126.62511738290002,2020-07-02,3490000,인천광역시 중구
1540,인천광역시 중구청,인천광역시 중구 내항로 465-110,인천광역시 중구 북성동1가 80-5,생활방범,3,200.0,360도전방면,30.0,201812,032-760-7102,37.4721284575,126.6072326915,2020-07-02,3490000,인천광역시 중구
1542,인천광역시 중구청,인천광역시 중구 개항로95-8,인천광역시 중구 경동 137-16,생활방범,3,200.0,360도전방면,30.0,201812,032-760-7102,37.472377102399996,126.6330061835,2020-07-02,3490000,인천광역시 중구
1543,인천광역시 중구청,인천광역시 중구 북성포길 49,인천광역시 중구 북성동1가 3-9,생활방범,3,200.0,360도전방면,30.0,201904,032-760-7102,37.4830865038,126.6154606252,2020-07-02,3490000,인천광역시 중구
1544,인천광역시 중구청,인천광역시 중구 신도시남로 76,인천광역시 중구 운서동 2785-12,생활방범,3,200.0,360도전방면,30.0,201904,032-760-7102,37.489788802199996,126.48706092389999,2020-07-02,3490000,인천광역시 중구
1545,인천광역시 중구청,인천광역시 중구 홍예문로 76,인천광역시 중구 전동 18-31,생활방범,3,200.0,360도전방면,30.0,201904,032-760-7102,37.4761194724,126.62769248110001,2020-07-02,3490000,인천광역시 중구
1546,경기도 평택시,경기도 평택시 동삭1로 22번길 40,경기도 평택시 동삭동 371-1,생활방범,4,200.0,360도전방면,30.0,201901,031-8024-5291,37.02276131,127.09066229999999,2020-05-25,3910000,경기도 평택시
1551,경기도 평택시,경기도 평택시 청북읍 안청로4길53,경기도 평택시 청북읍 옥길리 1153 (유승한내들퍼스트뷰),교통단속,3,200.0,360도전방면,30.0,201510,031-8024-4888,37.02298119,126.92484569999999,2020-05-25,3910000,경기도 평택시
1552,경기도 평택시,경기도 평택시 관동길 39,경기도 평택시 월곡동 397-14,생활방범,2,200.0,360도전방면,30.0,201108,031-8024-5291,37.02304064,127.13115490000001,2020-05-25,3910000,경기도 평택시
1553,경기도 평택시,경기도 평택시 청북읍 안청로4길 26,경기도 평택시 청북읍 옥길리 1136,어린이보호,1,200.0,360도전방면,30.0,201002,031-8024-5291,37.02329947,126.9157426,2020-05-25,3910000,경기도 평택시
1554,경기도 평택시,경기도 평택시 월곡길 101,경기도 평택시 월곡동 160-8,생활방범,2,200.0,360도전방면,30.0,201108,031-8024-5291,37.02342773,127.1393908,2020-05-25,3910000,경기도 평택시
1555,경기도 평택시,경기도 평택시 청북읍 안청로4길 49,경기도 평택시 청북읍 옥길리 1149,어린이보호,1,200.0,360도전방면,30.0,201002,031-8024-5291,37.02346467,126.9200983,2020-05-25,3910000,경기도 평택시
1556,경기도 평택시,경기도 평택시 청북읍 안청로4길 31,경기도 평택시 청북읍 옥길리 1143,어린이보호,1,200.0,360도전방면,30.0,201002,031-8024-5291,37.02354234,126.9177203,2020-05-25,3910000,경기도 평택시
1557,경기도 평택시,경기도 평택시 청북읍 안청로 4길 31,경기도 평택시 청북읍 옥길리 1143,교통단속,3,200.0,360도전방면,30.0,201601,031-8024-4888,37.02354234,126.9177203,2020-05-25,3910000,경기도 평택시
1558,경기도 평택시,경기도 평택시 청북읍 옥길1길 206,경기도 평택시 청북읍 옥길리 297-2,생활방범,3,200.0,360도전방면,30.0,201710,031-8024-5291,37.02361964,126.9100064,2020-05-25,3910000,경기도 평택시
1559,경기도 평택시,경기도 평택시 청북읍 옥길 1길 241,경기도 평택시 청북읍 옥길리 376-1,차량방범,2,200.0,360도전방면,30.0,201002,031-8024-5291,37.02374266,126.90596509999999,2020-05-25,3910000,경기도 평택시
1561,경기도 평택시,경기도 평택시 새말로 4-60,경기도 평택시 칠원동 424-20,교통단속,1,200.0,360도전방면,30.0,201908,031-8024-4888,37.02397821,127.1012545,2020-05-25,3910000,경기도 평택시
1562,경기도 평택시,경기도 평택시 청북읍 안청로 406-4,경기도 평택시 청북읍 옥길리 1133-1,생활방범,3,200.0,360도전방면,30.0,201906,031-8024-5291,37.02397936,126.9139078,2020-05-25,3910000,경기도 평택시
1563,경기도 평택시,경기도 평택시 청북읍 원후사길 68-2,경기도 평택시 청북읍 후사리 431-6,생활방범,3,200.0,360도전방면,30.0,201605,031-8024-5291,37.02400794,126.9363524,2020-05-25,3910000,경기도 평택시
1564,경기도 평택시,경기도 평택시 지제로 170(오렌지편의점맞은편),경기도 평택시 지제동 302-29,교통단속,3,200.0,360도전방면,30.0,201808,031-8024-4888,37.02413851,127.05479220000001,2020-05-25,3910000,경기도 평택시
1809,대구광역시 중구청,대구광역시 중구 진골목길 8,대구광역시 중구 종로2가 83,생활방범,1,200.0,360도 전방면,30.0,201512,053-661-2495,35.86777718,128.5924775,2019-06-14,3410000,대구광역시 중구
1810,대구광역시 중구청,대구광역시 중구 동성로2길 6,대구광역시 중구 봉산동 15-3,생활방범,2,200.0,야시골목,30.0,201512,053-661-2495,35.8663218,128.5959424,2019-06-14,3410000,대구광역시 중구
1811,대구광역시 중구청,대구광역시 중구 명륜로23길 24,대구광역시 중구 봉산동 230-81,생활방범,1,200.0,360도 전방면,30.0,201512,053-661-2495,35.86111246,128.5959973,2019-06-14,3410000,대구광역시 중구
1812,대구광역시 중구청,대구광역시 중구 공평로 59,대구광역시 중구 공평동 81-15,생활방범,2,200.0,공평동 81-15,30.0,201512,053-661-2495,35.86944552,128.5998446,2019-06-14,3410000,대구광역시 중구
1813,대구광역시 중구청,대구광역시 중구 태평로 176-1,대구광역시 중구 태평로1가 6-10,생활방범,1,200.0,360도 전방면,30.0,201512,053-661-2495,35.87448479,128.596859,2019-06-14,3410000,대구광역시 중구
1814,대구광역시 중구청,대구광역시 중구 태평로 178-1,대구광역시 중구 태평로1가 6-1,생활방범,1,200.0,360도 전방면,30.0,201512,053-661-2495,35.87432931,128.5971659,2019-06-14,3410000,대구광역시 중구
1815,대구광역시 중구청,대구광역시 중구 동성로2길 12-5,대구광역시 중구 봉산동 21-10,생활방범,2,200.0,야시골목,30.0,201512,053-661-2495,35.86634181,128.596607,2019-06-14,3410000,대구광역시 중구
1816,대구광역시 중구청,대구광역시 중구 명륜로 111,대구광역시 중구 봉산동 234-14,생활방범,1,200.0,360도 전방면,30.0,201512,053-661-2495,35.86017142,128.5965585,2019-06-14,3410000,대구광역시 중구
1817,대구광역시 중구청,대구광역시 중구 교동길 74,대구광역시 중구 교동 70-48,생활방범,1,200.0,360도 전방면,30.0,201512,053-661-2495,35.87322838,128.59863629999998,2019-06-14,3410000,대구광역시 중구
1818,대구광역시 중구청,대구광역시 중구 공평로 34,대구광역시 중구 삼덕동2가 6,생활방범,2,200.0,닥터홍치과 옆,30.0,201512,053-661-2495,35.86703772,128.6001106,2019-06-14,3410000,대구광역시 중구
1819,대구광역시 중구청,대구광역시 중구 남산로 22,대구광역시 중구 남산동 2501-15,생활방범,1,200.0,360도 전방면,30.0,201607,053-661-2495,35.85846181,128.583019,2019-06-14,3410000,대구광역시 중구
1820,대구광역시 중구청,대구광역시 중구 문우관길 11,대구광역시 중구 남산동 570-4,생활방범,1,200.0,360도 전방면,30.0,201607,053-661-2495,35.86444521,128.5895856,2019-06-14,3410000,대구광역시 중구
1821,대구광역시 중구청,대구광역시 중구 태평로6길 15-7,대구광역시 중구 달성동 110-8,생활방범,1,200.0,360도 전방면,30.0,201607,053-661-2495,35.87697549,128.58078759999998,2019-06-14,3410000,대구광역시 중구
1822,대구광역시 중구청,대구광역시 중구 진골목길 25,대구광역시 중구 남일동 141,생활방범,2,200.0,정소아과의원 앞,30.0,201607,053-661-2495,35.86874183,128.5925809,2019-06-14,3410000,대구광역시 중구
1823,대구광역시 중구청,대구광역시 중구 국채보상로 488-15,대구광역시 중구 동산동 84-1,생활방범,2,200.0,동산동 84-1,30.0,201607,053-661-2495,35.87030748,128.58348940000002,2019-06-14,3410000,대구광역시 중구
1824,대구광역시 중구청,대구광역시 중구 서성로14길 103,대구광역시 중구 향촌동 39-1,생활방범,1,200.0,360도 전방면,30.0,201704,053-661-2495,35.87318768,128.5932899612,2019-06-14,3410000,대구광역시 중구
1825,대구광역시 중구청,대구광역시 중구 달구벌대로 2025-5,대구광역시 중구 동산동 860,생활방범,1,200.0,360도 전방면,30.0,201607,053-661-2495,35.86612775,128.5850093,2019-06-14,3410000,대구광역시 중구
1826,대구광역시 중구청,대구광역시 중구 종로 23-22,대구광역시 중구 장관동 31-3,생활방범,2,200.0,장관동 31-3,30.0,201607,053-661-2495,35.86812805,128.590753,2019-06-14,3410000,대구광역시 중구
1827,대구광역시 중구청,대구광역시 중구 중앙대로79길 51,대구광역시 중구 장관동 39-1,생활방범,1,200.0,360도 전방면,30.0,201607,053-661-2495,35.86893933,128.5907338,2019-06-14,3410000,대구광역시 중구
1828,대구광역시 중구청,대구광역시 중구 명륜로 147-10,대구광역시 중구 봉산동 259-8,생활방범,1,200.0,360도 전방면,30.0,201607,053-661-2495,35.86081241,128.6001271,2019-06-14,3410000,대구광역시 중구
1829,대구광역시 중구청,대구광역시 중구 국채보상로143길 41-13,대구광역시 중구 동인동3가 46,생활방범,1,200.0,360도 전방면,30.0,201607,053-661-2495,35.87064289,128.6078933,2019-06-14,3410000,대구광역시 중구
1830,대구광역시 중구청,대구광역시 중구 국채보상로149길 34-8,대구광역시 중구 동인동3가 219-4,생활방범,2,200.0,동인동3가 219-4,30.0,201607,053-661-2495,35.86995768,128.6116836,2019-06-14,3410000,대구광역시 중구
1831,대구광역시 중구청,대구광역시 중구 동덕로38길 112-13,대구광역시 중구 동인동3가 207-9,생활방범,1,200.0,360도 전방면,30.0,201607,053-661-2495,35.87027367,128.61096809999998,2019-06-14,3410000,대구광역시 중구
1832,대구광역시 중구청,대구광역시 중구 동덕로38길 77,대구광역시 중구 동인동3가 246-4,생활방범,1,200.0,360도 전방면,30.0,201607,053-661-2495,35.87114616,128.6088024,2019-06-14,3410000,대구광역시 중구
1833,대구광역시 중구청,대구광역시 중구 경상감영길 285-5,대구광역시 중구 동인동1가 235-13,생활방범,2,200.0,커블빌 앞,30.0,201607,053-661-2495,35.87120434,128.60283379999998,2019-06-14,3410000,대구광역시 중구
1834,대구광역시 중구청,대구광역시 중구 공평로20길 51-28,대구광역시 중구 동인동1가 201-2,생활방범,2,200.0,더?빌라 앞,30.0,201605,053-661-2495,35.87277462,128.603202,2019-06-14,3410000,대구광역시 중구
1835,대구광역시 중구청,대구광역시 중구 경상감영길 297-20,대구광역시 중구 동인동1가 284-1,생활방범,1,200.0,360도 전방면,30.0,201605,053-661-2495,35.87138906,128.6038473,2019-06-14,3410000,대구광역시 중구
1836,대구광역시 중구청,대구광역시 중구 태평로 230,대구광역시 중구 동인동1가 81-2,생활방범,1,200.0,360도 전방면,30.0,201605,053-661-2495,35.87333761,128.6026111,2019-06-14,3410000,대구광역시 중구
1837,대구광역시 중구청,대구광역시 중구 국채보상로131길 69,대구광역시 중구 동인동1가 96-1,생활방범,1,200.0,360도 전방면,30.0,201605,053-661-2495,35.87289189,128.6025179,2019-06-14,3410000,대구광역시 중구
1838,대구광역시 중구청,대구광역시 중구 대봉로 230,대구광역시 중구 대봉동 44-153,생활방범,1,200.0,360도 전방면,30.0,201605,053-661-2495,35.85932727,128.6014832,2019-06-14,3410000,대구광역시 중구
1839,대구광역시 중구청,대구광역시 중구 대봉로 208,대구광역시 중구 대봉동 132-1,생활방범,1,200.0,360도 전방면,30.0,201605,053-661-2495,35.85720995,128.6021314,2019-06-14,3410000,대구광역시 중구
1840,대구광역시 중구청,대구광역시 중구 달성로 19,대구광역시 중구 대신동 992,생활방범,1,200.0,360도 전방면,30.0,201512,053-661-2495,35.86682527,128.5821358,2019-06-14,3410000,대구광역시 중구
1841,대구광역시 중구청,대구광역시 중구 달성로 23,대구광역시 중구 대신동 987,생활방범,1,200.0,대신동 987,30.0,201512,053-661-2495,35.86736634,128.5821067,2019-06-14,3410000,대구광역시 중구
1842,대구광역시 중구청,대구광역시 중구 달성공원로10길 30,대구광역시 중구 달성동 219-28,생활방범,1,200.0,360도 전방면,30.0,201512,053-661-2495,35.87500296,128.58085020000001,2019-06-14,3410000,대구광역시 중구
1843,대구광역시 중구청,대구광역시 중구 동성로 19-7,대구광역시 중구 사일동 79,생활방범,1,200.0,사일동 79,30.0,201512,053-661-2495,35.86897541,128.59480870000002,2019-06-14,3410000,대구광역시 중구
1844,대구광역시 중구청,대구광역시 중구 동덕로30길 151-9,대구광역시 중구 동인동4가 531-2,생활방범,1,200.0,360도 전방면,30.0,201512,053-661-2495,35.86617194,128.6120231,2019-06-14,3410000,대구광역시 중구
1845,대구광역시 중구청,대구광역시 중구 남산로13길 58,대구광역시 중구 남산동 2636-11,생활방범,1,200.0,360도 전방면,30.0,201512,053-661-2495,35.86123035,128.579443,2019-06-14,3410000,대구광역시 중구
1846,대구광역시 중구청,대구광역시 중구 명륜로22길 76,대구광역시 중구 남산동 2005-8,생활방범,1,200.0,360도 전방면,30.0,201512,053-661-2495,35.85729748,128.5941984,2019-06-14,3410000,대구광역시 중구
1847,대구광역시 중구청,대구광역시 중구 달구벌대로415길 49,대구광역시 중구 남성로 51-1,생활방범,1,200.0,360도 전방면,30.0,201512,053-661-2495,35.86851768,128.5899105,2019-06-14,3410000,대구광역시 중구
1848,대구광역시 중구청,대구광역시 중구 달구벌대로405길 39,대구광역시 중구 동산동 439,생활방범,1,200.0,360도 전방면,30.0,201512,053-661-2495,35.86710596,128.5840855,2019-06-14,3410000,대구광역시 중구
1849,대구광역시 중구청,대구광역시 중구 약령길 20-1,대구광역시 중구 계산동2가 135,생활방범,1,200.0,360도 전방면,30.0,201512,053-661-2495,35.867444299999995,128.5890344,2019-06-14,3410000,대구광역시 중구
1850,대구광역시 중구청,대구광역시 중구 달구벌대로 2027,대구광역시 중구 동산동 849,생활방범,2,200.0,동산동 849,30.0,201512,053-661-2495,35.86609146,128.5853008,2019-06-14,3410000,대구광역시 중구
1851,대구광역시 중구청,대구광역시 중구 태평로 113-61,대구광역시 중구 태평로3가 214-38,생활방범,1,200.0,360도 전방면,30.0,201512,053-661-2495,35.87670798,128.59040190000002,2019-06-14,3410000,대구광역시 중구
1852,대구광역시 중구청,대구광역시 중구 명륜로22길 25-16,대구광역시 중구 남산동 731-4,생활방범,1,200.0,360도 전방면,30.0,201704,053-661-2495,35.85914178,128.594563,2019-06-14,3410000,대구광역시 중구
1853,대구광역시 중구청,대구광역시 중구 큰장로 24안길 42,대구광역시 중구 대신동 302-11,생활방범,1,200.0,360도 전방면,30.0,201704,053-661-2495,35.86586396,128.5784899,2019-06-14,3410000,대구광역시 중구
1854,대구광역시 중구청,대구광역시 중구 큰장로12길 26,대구광역시 중구 대신동 1636,생활방범,1,200.0,360도 전방면,30.0,201704,053-661-2495,35.86507446,128.5752017,2019-06-14,3410000,대구광역시 중구
1855,대구광역시 중구청,대구광역시 중구 태평로6길 7,대구광역시 중구 달성동 111-6,생활방범,1,200.0,남영 씨링 인쇄사 앞,30.0,201704,053-661-2495,35.87731616,128.5806482,2019-06-14,3410000,대구광역시 중구
1856,대구광역시 중구청,대구광역시 중구 북성로46-1,대구광역시 중구 서성로1가 17-5,생활방범,1,200.0,서성로1가 17-5,30.0,201704,053-661-2495,35.87370665,128.5873082,2019-06-14,3410000,대구광역시 중구
1857,대구광역시 중구청,대구광역시 중구 중앙대로79길 16,대구광역시 중구 남일동129-1,생활방범,2,200.0,중앙시네마 주차장 앞,30.0,201704,053-661-2495,35.86928876,128.59265390000002,2019-06-14,3410000,대구광역시 중구
1858,대구광역시 중구청,대구광역시 중구 서성로14길 85,대구광역시 중구 대안동 24,생활방범,1,200.0,아미제화 앞,30.0,201704,053-661-2495,35.87309012,128.59222069999998,2019-06-14,3410000,대구광역시 중구
1859,대구광역시 중구청,대구광역시 중구 태평로 152-8,대구광역시 중구 북성로1가 14-2,생활방범,1,200.0,360도 전방면,30.0,201704,053-661-2495,35.87473553,128.5942643,2019-06-14,3410000,대구광역시 중구
1860,대구광역시 중구청,대구광역시 중구 중앙대로81길 11,대구광역시 중구 동일동 31-2,생활방범,1,200.0,360도 전방면,30.0,201704,053-661-2495,35.86965784,128.5930908,2019-06-14,3410000,대구광역시 중구
1861,대구광역시 중구청,대구광역시 중구 약령길 64,대구광역시 중구 수동 82,생활방범,1,200.0,약령시 입구,30.0,201704,053-661-2495,35.8691136,128.5895504,2019-06-14,3410000,대구광역시 중구
1862,대구광역시 중구청,대구광역시 중구 국채보상로 102길 10-24,대구광역시 중구 동산동 178-1,생활방범,1,200.0,동산동 178-1,30.0,201704,053-661-2495,35.86913582,128.5854146,2019-06-14,3410000,대구광역시 중구
1863,대구광역시 중구청,대구광역시 중구 달구벌대로 2003-10,대구광역시 중구 동산동 682,생활방범,1,200.0,미진식당 옆,30.0,201704,053-661-2495,35.865725700000006,128.5832432,2019-06-14,3410000,대구광역시 중구
1864,대구광역시 중구청,대구광역시 중구 달구벌대로 2109-17,대구광역시 중구 덕산동 127-10,생활방범,1,200.0,중앙요리학원 앞,30.0,201704,053-661-2495,35.86624636,128.59402340000003,2019-06-14,3410000,대구광역시 중구
1865,대구광역시 중구청,대구광역시 중구 봉산문화1길 16-29,대구광역시 중구 봉산동 177-13,생활방범,1,200.0,봉산동 177-13,30.0,201704,053-661-2495,35.86193179,128.59889640000003,2019-06-14,3410000,대구광역시 중구
1866,대구광역시 중구청,대구광역시 중구 봉산문화1길 16-18,대구광역시 중구 봉산동 168-31,생활방범,1,200.0,봉산동 168-31,30.0,201704,053-661-2495,35.86210889,128.5985900373,2019-06-14,3410000,대구광역시 중구
1867,대구광역시 중구청,대구광역시 중구 중앙대로 442-13,대구광역시 중구 동성로1가 32-1,생활방범,1,200.0,허윤정 콜렉션 앞,30.0,201704,053-661-2495,35.87255659,128.59521270000002,2019-06-14,3410000,대구광역시 중구
1868,대구광역시 중구청,대구광역시 중구 경상감영길 175,대구광역시 중구 동문동 19-4,생활방범,1,200.0,동아 아울렛 본점 옆,30.0,201704,053-661-2495,35.87224749,128.59704440000002,2019-06-14,3410000,대구광역시 중구
1869,대구광역시 중구청,대구광역시 중구 동성로4길 60,대구광역시 중구 삼덕동1가 61-1,생활방범,1,200.0,데레사 신협 앞,30.0,201704,053-661-2495,35.86732918,128.59933700000002,2019-06-14,3410000,대구광역시 중구
1870,대구광역시 중구청,대구광역시 중구 국채보상로 150길 75-10,대구광역시 중구 삼덕동3가 189-6,생활방범,1,200.0,360도 전방면,30.0,201704,053-661-2495,35.86489835,128.61103640000002,2019-06-14,3410000,대구광역시 중구
1871,대구광역시 중구청,대구광역시 중구 국채보상로 149길 101,대구광역시 중구 동인동3가 348-2,생활방범,1,200.0,360도 전방면,30.0,201704,053-661-2495,35.87277259,128.6103588,2019-06-14,3410000,대구광역시 중구
1872,대구광역시 중구청,대구광역시 중구 경상감영길 298-13,대구광역시 중구 동인동2가 52-24,생활방범,1,200.0,히로텔 후문,30.0,201704,053-661-2495,35.87007322,128.6033203,2019-06-14,3410000,대구광역시 중구
1873,대구광역시 중구청,대구광역시 중구 남산로8길 25-16,대구광역시 중구 남산동 2178-1,생활방범,1,200.0,360도 전방면,30.0,201611,053-661-2495,35.85866028,128.5876457,2019-06-14,3410000,대구광역시 중구
1874,대구광역시 중구청,대구광역시 중구 봉산문화1길 16-25,대구광역시 중구 봉산동 177-35,생활방범,1,200.0,봉산동 177-35,30.0,201611,053-661-2495,35.86206637,128.59880619999998,2019-06-14,3410000,대구광역시 중구
1875,대구광역시 중구청,대구광역시 중구 봉산문화1길 18,대구광역시 중구 봉산동 168-148,생활방범,1,200.0,360도 전방면,30.0,201611,053-661-2495,35.86278583,128.5983734,2019-06-14,3410000,대구광역시 중구
1876,대구광역시 중구청,대구광역시 중구 국채보상로125길 14,대구광역시 중구 공평동 10-2,생활방범,1,200.0,360도 전방면,30.0,201608,053-661-2495,35.87104715,128.5989423,2019-06-14,3410000,대구광역시 중구
1877,대구광역시 중구청,대구광역시 중구 동덕로 1-36,대구광역시 중구 대봉동 186-7,생활방범,2,200.0,대봉동 186-7,30.0,201608,053-661-2495,35.85568339,128.6033493,2019-06-14,3410000,대구광역시 중구
1878,대구광역시 중구청,대구광역시 중구 큰장로12길 38,대구광역시 중구 대신동 1628-2,생활방범,2,200.0,가나상사 앞,30.0,201607,053-661-2495,35.86553236,128.5754676,2019-06-14,3410000,대구광역시 중구
1879,대구광역시 중구청,대구광역시 중구 명덕로47길 6-7,대구광역시 중구 대봉동 590-486,생활방범,2,200.0,순복음중앙교회 앞,30.0,201607,053-661-2495,35.85684594,128.5956284,2019-06-14,3410000,대구광역시 중구
1880,대구광역시 중구청,대구광역시 중구 남산로3길 52,대구광역시 중구 남산동 2633-2,생활방범,1,200.0,360도 전방면,30.0,201607,053-661-2495,35.86091523,128.57763899999998,2019-06-14,3410000,대구광역시 중구
1881,대구광역시 중구청,대구광역시 중구 남산로15길 32-23,대구광역시 중구 남산동 2657-1,생활방범,1,200.0,남산동 2657-1,30.0,201607,053-661-2495,35.86289836,128.5817035,2019-06-14,3410000,대구광역시 중구
1882,대구광역시 중구청,대구광역시 중구 남산로7길 41-5,대구광역시 중구 남산동 2511-3,생활방범,1,200.0,360도 전방면,30.0,201607,053-661-2495,35.8586356,128.5799495,2019-06-14,3410000,대구광역시 중구
2146,서울특별시 중랑구청,서울특별시 중랑구 동일로95길 13,서울특별시 중랑구 면목5동 172-6,생활방범,4,200.0,0,30.0,201302,02-2094-0284,37.58480156,127.07892450000001,2020-05-06,3060000,서울특별시 중랑구
2184,서울특별시 중랑구청,서울특별시 중랑구 면목5동 160-23,서울특별시 중랑구 면목5동 160-23,생활방범,1,200.0,0,30.0,201302,02-2094-0284,37.58348669,127.08125700000001,2020-05-06,3060000,서울특별시 중랑구
2185,대구광역시 중구청,대구광역시 중구 중앙대로77길55,대구광역시 중구 장관동 34,쓰레기단속,1,50.0,성내2동 주민센터옆,3.0,201405,053-661-3281,35.86837969,128.59053219999998,2019-06-14,3410000,대구광역시 중구
2186,대구광역시 중구청,대구광역시 중구 재마루1길 13,대구광역시 중구 남산동 249-8,쓰레기단속,1,50.0,동양인쇄소 옆,3.0,201405,053-661-3281,35.86460896,128.5875607,2019-06-14,3410000,대구광역시 중구
2187,대구광역시 중구청,대구광역시 중구 중앙대로 434-4,대구광역시 중구 포정동 70-1,쓰레기단속,1,50.0,황소식당앞,3.0,201307,053-661-3281,35.8719027,128.5945087,2019-06-14,3410000,대구광역시 중구
2188,대구광역시 중구청,대구광역시 중구 달구벌대로 2210-9,대구광역시 중구 대봉동 14-1,쓰레기단속,1,50.0,구 대봉1동주민센터,3.0,201405,053-661-3281,35.86203995,128.6048412,2019-06-14,3410000,대구광역시 중구
2189,대구광역시 중구청,대구광역시 중구 동성로4길 96,대구광역시 중구 공평동 70-1,쓰레기단속,1,50.0,신피부과 골목,3.0,201006,053-661-3281,35.86901875,128.599681,2019-06-14,3410000,대구광역시 중구
2190,대구광역시 중구청,대구광역시 중구 북성로 108,대구광역시 중구 북성로1가 80-4,교통단속,3,200.0,한일유료주차장 앞,30.0,201606,053-661-3023,35.87442656,128.5941873,2019-06-14,3410000,대구광역시 중구
2191,대구광역시 중구청,대구광역시 중구 대봉로 216,대구광역시 중구 대봉동 139-8,교통단속,3,200.0,대봉동우체국,30.0,201606,053-661-3023,35.85802419,128.6018909,2019-06-14,3410000,대구광역시 중구
2192,대구광역시 중구청,대구광역시 중구 동성로6길 48,대구광역시 중구 공평동 57-3,교통단속,3,200.0,동성1길(신헤어라인),30.0,200911,053-661-3023,35.86851153,128.5979791,2019-06-14,3410000,대구광역시 중구
2193,대구광역시 중구청,대구광역시 중구 종로 41(종로1가),대구광역시 중구 종로1가 105-2,교통단속,3,200.0,종로 다보 앞,30.0,200905,053-661-3023,35.86953594,128.59140998709998,2019-06-14,3410000,대구광역시 중구
2194,대구광역시 중구청,대구광역시 중구 종로 17,대구광역시 중구 남성로 92,교통단속,3,200.0,남성로 정관장 앞,30.0,200905,053-661-3023,35.86738694,128.5920047,2019-06-14,3410000,대구광역시 중구
2195,대구광역시 중구청,대구광역시 중구 공평로 35,대구광역시 중구 삼덕동1가 63-114,교통단속,3,200.0,삼덕소방서,30.0,200809,053-661-3023,35.86718777,128.5996707,2019-06-14,3410000,대구광역시 중구
2196,대구광역시 중구청,대구광역시 중구 동성로6길 2-23,대구광역시 중구 삼덕동1가 4-11,교통단속,3,200.0,동성6길,30.0,200809,053-661-3023,35.86803586,128.5955295,2019-06-14,3410000,대구광역시 중구
2197,대구광역시 중구청,대구광역시 중구 동성로2길 83,대구광역시 중구 동성로2가 68-25,교통단속,3,200.0,2.28공원 옆,30.0,200809,053-661-3023,35.86973583,128.5969895,2019-06-14,3410000,대구광역시 중구
2198,대구광역시 중구청,대구광역시 중구 동성로5길 38,대구광역시 중구 삼덕동1가 17-11,교통단속,1,200.0,동성5길(구.금융결제원),0.0,200707,053-661-3023,35.86749455,128.5966611,2019-06-14,3410000,대구광역시 중구
2199,대구광역시 중구청,대구광역시 중구 국채보상로152길 40,대구광역시 중구 동인동4가 500-4,쓰레기단속,1,200.0,동인동4가 500-4,30.0,201904,053-661-3281,35.86646491,128.6124852,2019-06-14,3410000,대구광역시 중구
2200,대구광역시 중구청,대구광역시 중구 태평로51길 8-27,대구광역시 중구 동인동3가 271-73,쓰레기단속,1,200.0,동인 소 공원,30.0,201904,053-661-3281,35.87313817,128.6078241,2019-06-14,3410000,대구광역시 중구
2201,대구광역시 중구청,대구광역시 중구 동덕로38길 59,대구광역시 중구 동인동3가 248-10,쓰레기단속,1,200.0,웰빙하우스빌라 옆,30.0,201904,053-661-3281,35.87123417,128.6078831,2019-06-14,3410000,대구광역시 중구
2202,대구광역시 중구청,대구광역시 중구 국채보상로143길 37,대구광역시 중구 동인동3가 182-6,쓰레기단속,1,200.0,코아시스빌라 옆 화단,30.0,201904,053-661-3281,35.87047561,128.6085409,2019-06-14,3410000,대구광역시 중구
2203,대구광역시 중구청,대구광역시 중구 동덕로30길 113,대구광역시 중구 동인동4가 409-15,쓰레기단속,1,200.0,동인공영주차장 입구,30.0,201904,053-661-3281,35.866202799999996,128.6099912,2019-06-14,3410000,대구광역시 중구
2204,대구광역시 중구청,대구광역시 중구 서성로14길 21-8,대구광역시 중구 북내동 39-3,쓰레기단속,1,200.0,서문로교회 인근,30.0,201906,053-661-3281,35.87287267,128.5887708,2019-06-14,3410000,대구광역시 중구
2205,대구광역시 중구청,대구광역시 중구 태평로28길 10,대구광역시 중구 태평로2가 24-1,쓰레기단속,1,200.0,북성공영주차장 인근,30.0,201906,053-661-3281,35.87517197,128.5917973,2019-06-14,3410000,대구광역시 중구
2206,대구광역시 중구청,대구광역시 중구 경상감영1길 60,대구광역시 중구 향촌동 34-1,쓰레기단속,1,200.0,쿡모텔 인근,30.0,201906,053-661-3281,35.87346408,128.5931051,2019-06-14,3410000,대구광역시 중구
2207,대구광역시 중구청,대구광역시 중구 북성로 86-1,대구광역시 중구 북성로1가 39-2,쓰레기단속,1,200.0,북성로 공구골목내,30.0,201906,053-661-3281,35.87412715,128.5917587,2019-06-14,3410000,대구광역시 중구
2208,대구광역시 중구청,대구광역시 중구 중앙대로 307,대구광역시 중구 남산동 696-3,쓰레기단속,1,200.0,남문시장 동편 입구,30.0,201906,053-661-3281,35.86074881,128.5921642,2019-06-14,3410000,대구광역시 중구
2209,대구광역시 중구청,대구광역시 중구 중앙대로58길 36,대구광역시 중구 남산동 2106-1,쓰레기단속,1,200.0,경북여고 인근 베스트빌 앞,30.0,201906,053-661-3281,35.85724055,128.5930549,2019-06-14,3410000,대구광역시 중구
2210,대구광역시 중구청,대구광역시 중구 중앙대로 297,대구광역시 중구 남산동 703-6,쓰레기단속,1,200.0,대한내과 뒷편,30.0,201906,053-661-3281,35.85989871,128.591576,2019-06-14,3410000,대구광역시 중구
2211,대구광역시 중구청,대구광역시 중구 명륜로24길 14,대구광역시 중구 남산동 726-21,쓰레기단속,1,200.0,장애인복지센터 인근,30.0,201906,053-661-3281,35.85960922,128.5949222,2019-06-14,3410000,대구광역시 중구
2212,대구광역시 중구청,대구광역시 중구 2·28길 9(남산동),대구광역시 중구 남산동 2113-10,쓰레기단속,1,200.0,명덕초등학교 동편,30.0,201906,053-661-3281,35.85840456,128.59035500000002,2019-06-14,3410000,대구광역시 중구
2213,대구광역시 중구청,대구광역시 중구 남산로17길 63,대구광역시 중구 남산동 2638-5,쓰레기단속,1,50.0,휴먼시아2단지 인근,3.0,201307,053-661-3281,35.86219956,128.5794756,2019-06-14,3410000,대구광역시 중구
2214,대구광역시 중구청,대구광역시 중구 달구벌대로 1936,대구광역시 중구 남산동 2971-11,쓰레기단속,1,50.0,롯데마트 뒷편,3.0,201307,053-661-3281,35.8626226,128.57635770000002,2019-06-14,3410000,대구광역시 중구
2215,대구광역시 중구청,대구광역시 중구 남산로8길 98,대구광역시 중구 남산동 587-5,쓰레기단속,1,50.0,돼지국밥 뒤,3.0,201307,053-661-3281,35.86127973,128.589363,2019-06-14,3410000,대구광역시 중구
2216,대구광역시 중구청,대구광역시 중구 달구벌대로447길 34-3,대구광역시 중구 삼덕동3가 276-3,쓰레기단속,1,50.0,삼덕초등학교 뒤,3.0,201307,053-661-3281,35.86393766,128.6079482,2019-06-14,3410000,대구광역시 중구
2217,대구광역시 중구청,대구광역시 중구 교동4길 31,대구광역시 중구 완전동 2-5,쓰레기단속,1,50.0,기업은행 뒤,3.0,201611,053-661-3281,35.87257325,128.5993804,2019-06-14,3410000,대구광역시 중구
2218,대구광역시 중구청,대구광역시 중구 태평로 113-61,대구광역시 중구 태평로3가 214-38,쓰레기단속,1,50.0,건영아파트,3.0,201611,053-661-3281,35.87670798,128.59040190000002,2019-06-14,3410000,대구광역시 중구
2219,대구광역시 중구청,대구광역시 중구 남산로6길 23-5,대구광역시 중구 남산동 2210-19,쓰레기단속,1,50.0,부림베스트빌 옆,3.0,201611,053-661-3281,35.85930655,128.5862018,2019-06-14,3410000,대구광역시 중구
2220,대구광역시 중구청,대구광역시 중구 동덕로 62,대구광역시 중구 대봉동 24-21,쓰레기단속,1,200.0,웨딩쿨 앞,30.0,201611,053-661-3281,35.860366,128.6044089,2019-06-14,3410000,대구광역시 중구
2221,대구광역시 중구청,대구광역시 중구 명륜로22길 49,대구광역시 중구 남산동 730-43,쓰레기단속,1,50.0,경북여고 뒷담,3.0,201611,053-661-3281,35.85860009,128.5940961,2019-06-14,3410000,대구광역시 중구
2222,대구광역시 중구청,대구광역시 중구 중앙대로67길 19-5,대구광역시 중구 남산동 662-31,쓰레기단속,1,200.0,향교카센터 앞,30.0,201904,053-661-3281,35.86303779,128.5918867,2019-06-14,3410000,대구광역시 중구
2223,대구광역시 중구청,대구광역시 중구 명륜로 97-12,대구광역시 중구 남산동 687-24,쓰레기단속,1,200.0,삼원수퍼 앞,30.0,201904,053-661-3281,35.86076609,128.59575120000002,2019-06-14,3410000,대구광역시 중구
2224,대구광역시 중구청,대구광역시 중구 명륜로 68,대구광역시 중구 남산동698-51,쓰레기단속,1,200.0,신세명 약국 앞,30.0,201904,053-661-3281,35.86138135,128.5917606,2019-06-14,3410000,대구광역시 중구
2225,대구광역시 중구청,대구광역시 중구 중앙대로62길 19,대구광역시 중구 남산동 692-19,쓰레기단속,1,200.0,소노게스트하우스 뒷,30.0,201904,053-661-3281,35.86022876,128.5935973,2019-06-14,3410000,대구광역시 중구
2226,대구광역시 중구청,대구광역시 중구 달성공원로8길 30,대구광역시 중구 대신동 8-2,쓰레기단속,1,200.0,달성공원교차로 영전사 앞,30.0,201904,053-661-3281,35.87330911,128.58164920000002,2019-06-14,3410000,대구광역시 중구
2227,대구광역시 중구청,대구광역시 중구 달성공원로8길 4,대구광역시 중구 대신동 1-51,쓰레기단속,1,200.0,달성공원 정문 건너,30.0,201904,053-661-3281,35.87349591,128.5803287,2019-06-14,3410000,대구광역시 중구
2228,대구광역시 중구청,대구광역시 중구 달성공원로 22,대구광역시 중구 대신동 38-7,쓰레기단속,1,200.0,호성철학원 앞,30.0,201904,053-661-3281,35.87261785,128.5799437,2019-06-14,3410000,대구광역시 중구
2229,대구광역시 중구청,대구광역시 중구 종로 84,대구광역시 중구 대안동 67-8,쓰레기단속,1,200.0,동우세라믹스 코너,30.0,201904,053-661-3281,35.87322063,128.5910762,2019-06-14,3410000,대구광역시 중구
2230,대구광역시 중구청,대구광역시 중구 국채보상로102길 53,대구광역시 중구 계산동1가 92,쓰레기단속,1,200.0,제일교회기념관 코너,30.0,201904,053-661-3281,35.86825696,128.5867301,2019-06-14,3410000,대구광역시 중구
2231,대구광역시 중구청,대구광역시 중구 경상감영길 298-11,대구광역시 중구 동인동2가 61-13,쓰레기단속,1,200.0,동인시티빌 앞,30.0,201904,053-661-3281,35.87019332,128.6035043,2019-06-14,3410000,대구광역시 중구
2232,대구광역시 중구청,대구광역시 중구 국채보상로151길 28,대구광역시 중구 동인동3가 223-15,쓰레기단속,1,200.0,동막교회 앞 코너,30.0,201904,053-661-3281,35.8696252,128.6125537,2019-06-14,3410000,대구광역시 중구
2233,대구광역시 중구청,대구광역시 중구 국채보상로150길 15-1,대구광역시 중구 동인동4가 479-21,쓰레기단속,1,200.0,동인동4가 488-4,30.0,201904,053-661-3281,35.86768251,128.61173490000002,2019-06-14,3410000,대구광역시 중구
2234,대구광역시 중구청,대구광역시 중구 달구벌대로 2226,대구광역시 중구 대봉동 12-22,교통단속,1,200.0,방천시장 입구,0.0,201705,053-661-3023,35.86214064,128.6064772,2019-06-14,3410000,대구광역시 중구
2235,대구광역시 중구청,대구광역시 중구 큰장로 110,대구광역시 중구 대신동 1012,교통단속,1,200.0,서문시장5지구 앞,0.0,201005,053-661-3023,35.86825335,128.57797490000002,2019-06-14,3410000,대구광역시 중구
2236,대구광역시 중구청,대구광역시 중구 태평로 51길 78-2,대구광역시 중구 동인동3가 367-19,교통단속,1,200.0,동도교회(제2신천교),0.0,201005,053-661-3023,35.87351397,128.60963859999998,2019-06-14,3410000,대구광역시 중구
2237,대구광역시 중구청,대구광역시 중구 국채보상로 537,대구광역시 중구 수동 1-6,교통단속,1,200.0,곽병원 부근(한양검정고시학원 앞),0.0,201005,053-661-3023,35.87067579,128.5894443,2019-06-14,3410000,대구광역시 중구
2238,대구광역시 중구청,대구광역시 중구 국채보상로 599,대구광역시 중구 문화동 13-2,교통단속,1,200.0,롯데영프라자 부근(구.한일극장 맞은편),0.0,201005,053-661-3023,35.87101419,128.59627120000002,2019-06-14,3410000,대구광역시 중구
2239,대구광역시 중구청,대구광역시 중구 중앙대로 407-3,대구광역시 중구 남일동 124-5,교통단속,1,200.0,중앙로역(대한보청기 앞),0.0,201005,053-661-3023,35.86960861,128.5935416,2019-06-14,3410000,대구광역시 중구
2240,대구광역시 중구청,대구광역시 중구 중앙대로 393,대구광역시 중구 동성로3가 7-7,교통단속,1,200.0,GS 중앙점 앞(아카데미극장 맞은편),0.0,201005,053-661-3023,35.86828667,128.59347079999998,2019-06-14,3410000,대구광역시 중구
2241,대구광역시 중구청,대구광역시 중구 달구벌대로 2126,대구광역시 중구 봉산동 127-3,교통단속,1,200.0,봉산문화회관입구(미래에셋증권 앞),0.0,200912,053-661-3023,35.86467714,128.5960157,2019-06-14,3410000,대구광역시 중구
2242,대구광역시 중구청,대구광역시 중구 달구벌대로 2074-1,대구광역시 중구 남산동 512,교통단속,1,200.0,현대백화점 건너편(삼화안전주차장 앞),0.0,200912,053-661-3023,35.86574626,128.5904175,2019-06-14,3410000,대구광역시 중구
2243,대구광역시 중구청,대구광역시 중구 동덕로 127,대구광역시 중구 삼덕동2가 105-1,교통단속,1,200.0,경대병원건너(두산약국 앞),0.0,200912,053-661-3023,35.866021,128.60310139999999,2019-06-14,3410000,대구광역시 중구
2244,대구광역시 중구청,대구광역시 중구 달성로 56,대구광역시 중구 동산동194,교통단속,3,200.0,동산병원 앞,30.0,201810,053-661-3023,35.87017966,128.58252140000002,2019-06-14,3410000,대구광역시 중구
2245,대구광역시 중구청,대구광역시 중구 달구벌대로 2077,대구광역시 중구 계산동2가 200,교통단속,3,200.0,현대백화점 대구점 앞,30.0,201810,053-661-3023,35.86663023,128.5906256,2019-06-14,3410000,대구광역시 중구
2246,대구광역시 중구청,대구광역시 중구 명륜로23길93,대구광역시 중구 남산동912-5,교통단속,3,200.0,대구초등학교 서편,30.0,201807,053-661-3023,35.86411354,128.59475559999998,2019-06-14,3410000,대구광역시 중구
2247,대구광역시 중구청,대구광역시 중구 달구벌대로418길 28,대구광역시 중구 남산동 933-4,교통단속,3,200.0,반월당 삼정그린코아,30.0,201712,053-661-3023,35.86439488,128.5920246,2019-06-14,3410000,대구광역시 중구
2248,대구광역시 중구청,대구광역시 중구 달성로22길 33,대구광역시 중구 수창동 61,교통단속,3,200.0,수창초 정문 앞,30.0,201606,053-661-3023,35.87497898,128.5840385,2019-06-14,3410000,대구광역시 중구
2249,대구광역시 중구청,대구광역시 중구 달성로 100-8,대구광역시 중구 인교동 66-4,교통단속,3,200.0,성진엔텍 앞,30.0,201606,053-661-3023,35.87360916,128.5824036,2019-06-14,3410000,대구광역시 중구
2250,대구광역시 중구청,대구광역시 중구 북성로 32-1,대구광역시 중구 서야동 71-1,교통단속,3,200.0,세신종합볼트 앞,30.0,201606,053-661-3023,35.87433242,128.5915015,2019-06-14,3410000,대구광역시 중구
2251,대구광역시 중구청,대구광역시 중구 북성로 65-2,대구광역시 중구 북성로2가 5-1,교통단속,3,200.0,삼양베아링상사 앞,30.0,201606,053-661-3023,35.87406243,128.5895696,2019-06-14,3410000,대구광역시 중구
2252,대구광역시 중구청,대구광역시 중구 북성로 85,대구광역시 중구 북성로1가 30-5,교통단속,3,200.0,덕산도료 앞,30.0,201606,053-661-3023,35.87432122,128.5918024,2019-06-14,3410000,대구광역시 중구
2254,대구광역시 중구청,대구광역시 중구 국채보상로150길 15-23,대구광역시 중구 동인동4가 488-4,쓰레기단속,1,200.0,동인성당 옆 코너,30.0,201904,053-661-3281,35.86750868,128.61286950000002,2019-06-14,3410000,대구광역시 중구
2255,대구광역시 중구청,대구광역시 중구 큰장로 116,대구광역시 중구 대신동 115-43,교통단속,3,200.0,큰장네거리,30.0,200707,053-661-3023,35.86870758,128.5785197,2019-06-14,3410000,대구광역시 중구
2256,대구광역시 중구청,대구광역시 중구 동성로1길 77,대구광역시 중구 삼덕동1가 35-11,교통단속,1,200.0,통신골목입구,0.0,200707,053-661-3023,35.86531062,128.597441,2019-06-14,3410000,대구광역시 중구
2257,대구광역시 중구청,대구광역시 중구 태평로 196,대구광역시 중구 태평로1가 18-2,교통단속,3,200.0,태평로,30.0,200701,053-661-3023,35.87400831,128.5990771,2019-06-14,3410000,대구광역시 중구
2258,대구광역시 중구청,대구광역시 중구 동성로1길 31,대구광역시 중구 봉산동 35-3,교통단속,1,200.0,통신골목 시계탑,0.0,200607,053-661-3023,35.86646656,128.59535630000002,2019-06-14,3410000,대구광역시 중구
2259,대구광역시 중구청,대구광역시 중구 달성로 47,대구광역시 중구 대신동 115-306,교통단속,3,200.0,서문시장육교,30.0,200607,053-661-3023,35.86936712,128.582089,2019-06-14,3410000,대구광역시 중구
2260,대구광역시 중구청,대구광역시 중구 남산로6안길 10,대구광역시 중구 남산동 2210-81,쓰레기단속,1,200.0,천황장군 옆 전봇대,30.0,201904,053-661-3281,35.85866899,128.5856223,2019-06-14,3410000,대구광역시 중구
2261,대구광역시 중구청,대구광역시 중구 큰장로24길 3,대구광역시 중구 대신동 270-42,쓰레기단속,1,200.0,서문5지구 뒤,30.0,201904,053-661-3281,35.867768700000006,128.57919640000003,2019-06-14,3410000,대구광역시 중구
2262,대구광역시 중구청,대구광역시 중구 달성공원로4길 25,대구광역시 중구 대신동 72-1,쓰레기단속,1,200.0,대신동자율방범대 옆,30.0,201904,053-661-3281,35.87165286,128.5809608,2019-06-14,3410000,대구광역시 중구
2263,대구광역시 중구청,대구광역시 중구 서성로14길 33,대구광역시 중구 북내동 45-7,쓰레기단속,1,200.0,종로초등학교 후문,30.0,201904,053-661-3281,35.87271207,128.5894673,2019-06-14,3410000,대구광역시 중구
2264,대구광역시 중구청,대구광역시 중구 서성로14길 78,대구광역시 중구 대안동 19-3,쓰레기단속,1,200.0,향촌수제화센터 앞,30.0,201904,053-661-3281,35.8728464,128.59184380000002,2019-06-14,3410000,대구광역시 중구
2265,대구광역시 중구청,대구광역시 중구 국채보상로102길 36,대구광역시 중구 동산동 182-5,쓰레기단속,1,200.0,진주식당 앞,30.0,201904,053-661-3281,35.868830001300005,128.5859178,2019-06-14,3410000,대구광역시 중구
2266,대구광역시 중구청,대구광역시 중구 국채보상로149길 50,대구광역시 중구 동인동3가 228,쓰레기단속,1,200.0,동인시영아파트 코너,30.0,201904,053-661-3281,35.87018599,128.6118609,2019-06-14,3410000,대구광역시 중구
2267,대구광역시 중구청,대구광역시 중구 공평로20길 37-10,대구광역시 중구 동인동1가 263-6,쓰레기단속,1,200.0,온누리 어탕국수 옆,30.0,201904,053-661-3281,35.87194059,128.6033048,2019-06-14,3410000,대구광역시 중구
2268,대구광역시 중구청,대구광역시 중구 남산로13길 78,대구광역시 중구 남산동 2483-9,쓰레기단속,1,200.0,불정심인당 코너,30.0,201904,053-661-3281,35.86071562,128.57883950000002,2019-06-14,3410000,대구광역시 중구
2269,대구광역시 중구청,대구광역시 중구 남산로7길 115,대구광역시 중구 남산동 2635-14,쓰레기단속,1,200.0,미즈존 앞 폐가 펜스,30.0,201904,053-661-3281,35.8615415,128.5785326,2019-06-14,3410000,대구광역시 중구
2270,대구광역시 중구청,대구광역시 중구 남산로1길 114,대구광역시 중구 남산동 2612-48,쓰레기단속,1,200.0,남산동 2612-48 골목,30.0,201904,053-661-3281,35.85966232,128.57725109999998,2019-06-14,3410000,대구광역시 중구
2271,대구광역시 중구청,대구광역시 중구 남산로2길 50,대구광역시 중구 남산동 2119-30,쓰레기단속,1,200.0,장순빌 앞 전봇대,30.0,201904,053-661-3281,35.85696801,128.5855929,2019-06-14,3410000,대구광역시 중구
2272,대구광역시 중구청,대구광역시 중구 남산로12길 16,대구광역시 중구 남산동 2439-19,쓰레기단속,1,200.0,현대미용실 앞 삼거리,30.0,201904,053-661-3281,35.86168507,128.58350819999998,2019-06-14,3410000,대구광역시 중구
2273,대구광역시 중구청,대구광역시 중구 남산로6안길 27-37,대구광역시 중구 남산동 2217-56,쓰레기단속,1,200.0,우영아트 앞 폐가,30.0,201904,053-661-3281,35.85795663,128.5863388,2019-06-14,3410000,대구광역시 중구
2274,대구광역시 중구청,대구광역시 중구 남산로4길 40,대구광역시 중구 남산동 2213-18,쓰레기단속,1,200.0,극동스타APT 코너,30.0,201904,053-661-3281,35.85868798,128.58500279999998,2019-06-14,3410000,대구광역시 중구
2275,서울특별시 성동구청,서울특별시 성동구 동호로2나길 12-10,서울특별시 성동구 금호동4가 1226-2,생활방범,4,200.0,360도 전방면,30.0,201712,02-2286-5879,37.547798,127.017944,2020-06-08,3030000,서울특별시 성동구
2276,서울특별시 성동구청,서울특별시 성동구 장터길 6,서울특별시 성동구 금호동4가 1454-3,생활방범,4,200.0,360도 전방면,30.0,201712,02-2286-5879,37.548328000000005,127.01651799999999,2020-06-08,3030000,서울특별시 성동구
2277,대구광역시 중구청,대구광역시 중구 달성로26길 35,대구광역시 중구 도원동 3-2,생활방범,10,200.0,수창공원,30.0,201710,053-661-2495,35.87598014,128.5841072,2019-06-14,3410000,대구광역시 중구
2278,대구광역시 중구청,대구광역시 중구 북성로 104-14,대구광역시 중구 향촌동 18-4,생활방범,1,200.0,부엉이식당,30.0,201712,053-661-2495,35.87382372,128.5937101,2019-06-14,3410000,대구광역시 중구
2279,대구광역시 중구청,대구광역시 중구 경상감영1길 69,대구광역시 중구 북성로1가 45-8,생활방범,1,200.0,360도 전방면,30.0,201712,053-661-2495,35.87406206,128.5925900063,2019-06-14,3410000,대구광역시 중구
2280,대구광역시 중구청,대구광역시 중구 서성로16길 43,대구광역시 중구 북성로2가 52,생활방범,1,200.0,360도 전방면,30.0,201712,053-661-2495,35.87345133,128.589987,2019-06-14,3410000,대구광역시 중구
2281,대구광역시 중구청,대구광역시 중구 경상감영길 19-17,대구광역시 중구 서문로1가 37,생활방범,1,200.0,서문로1가 37,30.0,201712,053-661-2495,35.87188387,128.5883126,2019-06-14,3410000,대구광역시 중구
2282,대구광역시 중구청,대구광역시 중구 서성로14길 16,대구광역시 중구 서문로1가 33-4,생활방범,1,200.0,가나다문구사,30.0,201712,053-661-2495,35.87244044,128.5884743,2019-06-14,3410000,대구광역시 중구
2283,대구광역시 중구청,대구광역시 중구 남산로1길 32(남산동),대구광역시 중구 남산동 2507,생활방범,4,200.0,남산어린이공원,30.0,201709,053-661-2495,35.85823892,128.581332,2019-06-14,3410000,대구광역시 중구
2284,대구광역시 중구청,대구광역시 중구 태평로 56,대구광역시 중구 도원동 3-5,생활방범,1,200.0,도원동 3-5,30.0,201708,053-661-2495,35.87660271,128.5839114,2019-06-14,3410000,대구광역시 중구
2285,대구광역시 중구청,대구광역시 중구 태평로 44,대구광역시 중구 도원동 3-37,생활방범,1,200.0,도원동 3-37,30.0,201708,053-661-2495,35.87561635,128.59525190000002,2019-06-14,3410000,대구광역시 중구
2286,대구광역시 중구청,대구광역시 중구 달성로26길 27,대구광역시 중구 도원동 3-248,생활방범,1,200.0,수창공원 주변,30.0,201708,053-661-2495,35.8759704,128.5837527,2019-06-14,3410000,대구광역시 중구
2287,대구광역시 중구청,대구광역시 중구 태평로 60-16,대구광역시 중구 도원동 3-2,생활방범,1,200.0,대구 예술발전소 주변,30.0,201708,053-661-2495,35.87632551,128.58415829999998,2019-06-14,3410000,대구광역시 중구
2288,대구광역시 중구청,대구광역시 중구 동덕로8길 14-3,대구광역시 중구 대봉동 40-53,생활방범,1,200.0,김광석 스토리하우스,30.0,201707,053-661-2495,35.85901226,128.6056391,2019-06-14,3410000,대구광역시 중구
2289,대구광역시 중구청,대구광역시 중구 남산로6안길 27-13,대구광역시 중구 남산동 2217-7,생활방범,1,200.0,남산동 2217-7,30.0,201704,053-661-2495,35.85813968,128.5861254,2019-06-14,3410000,대구광역시 중구
2290,대구광역시 중구청,대구광역시 중구 명륜로26길 79,대구광역시 중구 대봉동 732-4,생활방범,1,200.0,360도 전방면,30.0,201704,053-661-2495,35.85636161,128.5973544,2019-06-14,3410000,대구광역시 중구
2291,대구광역시 중구청,대구광역시 중구 명륜로24길 13-32,대구광역시 중구 대봉동 594-19,생활방범,1,200.0,대봉동 594-19,30.0,201704,053-661-2495,35.85831486,128.5957597,2019-06-14,3410000,대구광역시 중구
2292,대구광역시 중구청,대구광역시 중구 대봉로 207-1(대봉동),대구광역시 중구 대봉동 131-5,생활방범,1,200.0,라망스튜디오 앞,30.0,201704,053-661-2495,35.85727978,128.6017608,2019-06-14,3410000,대구광역시 중구
2293,대구광역시 중구청,대구광역시 중구 달구벌대로 1992-7,대구광역시 중구 남산동 100-15,생활방범,1,200.0,남산동 100-15,30.0,201704,053-661-2495,35.86419323,128.5819152,2019-06-14,3410000,대구광역시 중구
2294,대구광역시 중구청,대구광역시 중구 명륜로 121-33,대구광역시 중구 봉산동 230-276,생활방범,1,200.0,제일중학교 주변,30.0,201704,053-661-2495,35.8604693,128.5969276,2019-06-14,3410000,대구광역시 중구
2295,대구광역시 중구청,대구광역시 중구 약령길 77,대구광역시 중구 수동 40-1,생활방범,1,200.0,약령시 입구,30.0,201704,053-661-2495,35.86974585,128.5891689,2019-06-14,3410000,대구광역시 중구
2296,대구광역시 중구청,대구광역시 중구 약령길 67-7,대구광역시 중구 수동 98,생활방범,1,200.0,수동 98,30.0,201704,053-661-2495,35.8691441,128.58915249999998,2019-06-14,3410000,대구광역시 중구
2297,대구광역시 중구청,대구광역시 중구 중앙대로81길 79,대구광역시 중구 수동 65-1,생활방범,1,200.0,장덕한의원 건너,30.0,201704,053-661-2495,35.86937965,128.58932990000002,2019-06-14,3410000,대구광역시 중구
2298,대구광역시 중구청,대구광역시 중구 동성로1길 45,대구광역시 중구 봉산동 34-3,생활방범,2,200.0,360도 전방면,30.0,201704,053-661-2495,35.86605786,128.5960035,2019-06-14,3410000,대구광역시 중구
2299,대구광역시 중구청,대구광역시 중구 동성로1길 46-10,대구광역시 중구 봉산동 37-9,생활방범,1,200.0,봉산동 37-9,30.0,201704,053-661-2495,35.86574337,128.59552779999999,2019-06-14,3410000,대구광역시 중구
2300,대구광역시 중구청,대구광역시 중구 남산로6길 24-11,대구광역시 중구 남산동 2185-16,생활방범,1,200.0,360도 전방면,30.0,201704,053-661-2495,35.85858703,128.586369,2019-06-14,3410000,대구광역시 중구
2301,대구광역시 중구청,대구광역시 중구 남산로6안길 27-61,대구광역시 중구 남산동 2185-73,생활방범,1,200.0,남산동 2185-73,30.0,201704,053-661-2495,35.8582502,128.5864907,2019-06-14,3410000,대구광역시 중구
2302,대구광역시 중구청,대구광역시 중구 대봉로 43길 52,대구광역시 중구 대봉동 152-85,생활방범,1,200.0,360도 전방면,30.0,201704,053-661-2495,35.85727735,128.5989668,2019-06-14,3410000,대구광역시 중구
2303,대구광역시 중구청,대구광역시 중구 명륜로 118-16,대구광역시 중구 대봉동 742-25,생활방범,1,200.0,대봉동 742-25,30.0,201704,053-661-2495,35.85931097,128.59756409999997,2019-06-14,3410000,대구광역시 중구
2304,대구광역시 중구청,대구광역시 중구 달구벌대로 1930-33(남산동),대구광역시 중구 남산동 2969-17,생활방범,1,200.0,360도 전방면,30.0,201704,053-661-2495,35.86195552,128.5761009,2019-06-14,3410000,대구광역시 중구
2305,대구광역시 중구청,대구광역시 중구 경상감영길 112-1,대구광역시 중구 포정동 54-5,생활방범,1,200.0,한일식당 앞,30.0,201805,053-661-2495,35.8716463,128.5934584,2019-06-14,3410000,대구광역시 중구
2306,대구광역시 중구청,대구광역시 중구 남산로3안길 68-10,대구광역시 중구 남산동 2952-14,생활방범,1,200.0,360도 전방면,30.0,201704,053-661-2495,35.86121083,128.5754397,2019-06-14,3410000,대구광역시 중구
2307,대구광역시 중구청,대구광역시 중구 남산로 17길 39,대구광역시 중구 남산동 2651-3,생활방범,1,200.0,남산휴먼시아 2단지 후문,30.0,201704,053-661-2495,35.86265172,128.5807244,2019-06-14,3410000,대구광역시 중구
2308,대구광역시 중구청,대구광역시 중구 남산로 17길 61,대구광역시 중구 남산동 2638-3,생활방범,1,200.0,360도 전방면,30.0,201704,053-661-2495,35.86214236,128.5797135,2019-06-14,3410000,대구광역시 중구
2309,대구광역시 중구청,대구광역시 중구 중앙대로61길 63-9,대구광역시 중구 남산동 589-17,생활방범,1,200.0,남산동 589-17,30.0,201704,053-661-2495,35.86068416,128.5886071,2019-06-14,3410000,대구광역시 중구
2310,대구광역시 중구청,대구광역시 중구 명륜로 123-3,대구광역시 중구 봉산동 230-306,생활방범,1,200.0,360도 전방면,30.0,201804,053-661-2495,35.86014702,128.597851,2019-06-14,3410000,대구광역시 중구
2311,대구광역시 중구청,대구광역시 중구 명륜로 119,대구광역시 중구 봉산동 238-3,생활방범,1,200.0,360도 전방면,30.0,201804,053-661-2495,35.85988736,128.5973189,2019-06-14,3410000,대구광역시 중구
2312,대구광역시 중구청,대구광역시 중구 명륜로 121-13,대구광역시 중구 봉산동 230-288,생활방범,1,200.0,360도 전방면,30.0,201804,053-661-2495,35.8603641,128.5972487,2019-06-14,3410000,대구광역시 중구
2313,대구광역시 중구청,대구광역시 중구 명륜로23길 14,대구광역시 중구 봉산동 230-4,생활방범,1,200.0,제일중학교,30.0,201804,053-661-2495,35.86066581,128.5962452,2019-06-14,3410000,대구광역시 중구
2314,대구광역시 중구청,대구광역시 중구 명륜로26길 69-12,대구광역시 중구 대봉동 733-17,생활방범,1,200.0,수도빌라 옆,30.0,201804,053-661-2495,35.85687878,128.59776770000002,2019-06-14,3410000,대구광역시 중구
2315,대구광역시 중구청,대구광역시 중구 명륜로22안길 12,대구광역시 중구 대봉동 590-175,생활방범,1,200.0,360도 전방면,30.0,201804,053-661-2495,35.8577371,128.59475179999998,2019-06-14,3410000,대구광역시 중구
2316,대구광역시 중구청,대구광역시 중구 달구벌대로446길 26,대구광역시 중구 대봉동 17-10,생활방범,1,200.0,360도 전방면,30.0,201804,053-661-2495,35.86126221,128.6055871,2019-06-14,3410000,대구광역시 중구
2317,대구광역시 중구청,대구광역시 중구 대봉로 228-16,대구광역시 중구 대봉동 44-53,생활방범,1,200.0,360도 전방면,30.0,201804,053-661-2495,35.8589782,128.6022511,2019-06-14,3410000,대구광역시 중구
2318,대구광역시 중구청,대구광역시 중구 문우관길 30-30,대구광역시 중구 남산동 621-3,생활방범,1,200.0,성심복지의원 뒤 안길,30.0,201804,053-661-2495,35.86340182,128.59080020000002,2019-06-14,3410000,대구광역시 중구
2319,대구광역시 중구청,대구광역시 중구 재마루길 25(남산동),대구광역시 중구 남산동 261-8,생활방범,1,200.0,360도 전방면,30.0,201804,053-661-2495,35.86499855,128.58699280000002,2019-06-14,3410000,대구광역시 중구
2320,대구광역시 중구청,대구광역시 중구 명륜로11길 47,대구광역시 중구 남산동 572-36,생활방범,1,200.0,성예종합인쇄 앞,30.0,201804,053-661-2495,35.86398204,128.5899926,2019-06-14,3410000,대구광역시 중구
2321,대구광역시 중구청,대구광역시 중구 명륜로24길 11-5,대구광역시 중구 남산동 735-33,생활방범,1,200.0,향교서편 안길,30.0,201804,053-661-2495,35.86003593,128.5950901,2019-06-14,3410000,대구광역시 중구
2322,대구광역시 중구청,대구광역시 중구 명륜로 56,대구광역시 중구 남산동 613-18,생활방범,1,200.0,360도 전방면,30.0,201804,053-661-2495,35.86180334,128.5906531,2019-06-14,3410000,대구광역시 중구
2323,대구광역시 중구청,대구광역시 중구 태평로 199-1,대구광역시 중구 태평로1가 1-90,생활방범,1,200.0,360도 전방면,30.0,201804,053-661-2495,35.87469271,128.5996533,2019-06-14,3410000,대구광역시 중구
2324,대구광역시 중구청,대구광역시 중구 태평로 177-3,대구광역시 중구 태평로1가 1-152,생활방범,1,200.0,360도 전방면,30.0,201804,053-661-2495,35.87508782,128.5981333,2019-06-14,3410000,대구광역시 중구
2325,대구광역시 중구청,대구광역시 중구 중앙대로 464-25,대구광역시 중구 화전동 9-3,생활방범,1,200.0,360도 전방면,30.0,201804,053-661-2495,35.87373564,128.5954578,2019-06-14,3410000,대구광역시 중구
2326,대구광역시 중구청,대구광역시 중구 달구벌대로443길 44-3,대구광역시 중구 삼덕동3가 256-2,생활방범,1,200.0,제네시스 빌라 앞,30.0,201804,053-661-2495,35.8648264,128.6059114,2019-06-14,3410000,대구광역시 중구
2327,대구광역시 중구청,대구광역시 중구 태평로 275-15,대구광역시 중구 동인동3가 271-100,생활방범,1,200.0,360도 전방면,30.0,201804,053-661-2495,35.87357062,128.6072925,2019-06-14,3410000,대구광역시 중구
2328,대구광역시 중구청,대구광역시 중구 국채보상로 698-20,대구광역시 중구 동인동4가 206,생활방범,1,200.0,동인교회 부근,30.0,201804,053-661-2495,35.86813559,128.6069746,2019-06-14,3410000,대구광역시 중구
2329,대구광역시 중구청,대구광역시 중구 동덕로40길 83-19,대구광역시 중구 동인동3가 282-19,생활방범,1,200.0,360도 전방면,30.0,201804,053-661-2495,35.87200649,128.6096967,2019-06-14,3410000,대구광역시 중구
2330,대구광역시 중구청,대구광역시 중구 동성로2길 18-8,대구광역시 중구 봉산동 22-3,생활방범,1,200.0,서울족발,30.0,201712,053-661-2495,35.8665946,128.5968424,2019-06-14,3410000,대구광역시 중구
2331,대구광역시 중구청,대구광역시 중구 남산로3길 21-11,대구광역시 중구 남산동 2623-18,생활방범,1,200.0,남산동 2623-18,30.0,201712,053-661-2495,35.86029412,128.5779986,2019-06-14,3410000,대구광역시 중구
2332,대구광역시 중구청,대구광역시 중구 중앙대로61길 22,대구광역시 중구 남산동 603-5,생활방범,1,200.0,360도 전방면,30.0,201712,053-661-2495,35.86046789,128.59078590000001,2019-06-14,3410000,대구광역시 중구
2333,대구광역시 중구청,대구광역시 중구 국채보상로 446,대구광역시 중구 대신동 115-105,생활방범,1,200.0,큰장식당,30.0,201712,053-661-2495,35.87016342,128.5799215,2019-06-14,3410000,대구광역시 중구
2334,대구광역시 중구청,대구광역시 중구 태평로 69-30,대구광역시 중구 태평로3가 200-14,생활방범,1,200.0,360도 전방면,30.0,201712,053-661-2495,35.87746768,128.5858331,2019-06-14,3410000,대구광역시 중구
2335,대구광역시 중구청,대구광역시 중구 달구벌대로401길 22,대구광역시 중구 동산동 526,생활방범,1,200.0,360도 전방면,30.0,201712,053-661-2495,35.86643815,128.5836117,2019-06-14,3410000,대구광역시 중구
2336,대구광역시 중구청,대구광역시 중구 달구벌대로 2037-26,대구광역시 중구 동산동 275,생활방범,1,200.0,360도 전방면,30.0,201712,053-661-2495,35.86749056,128.5866262,2019-06-14,3410000,대구광역시 중구
2337,대구광역시 중구청,대구광역시 중구 동성로12길 18,대구광역시 중구 문화동 12-13,생활방범,1,200.0,제일꽃집,30.0,201712,053-661-2495,35.87136128,128.59673429999998,2019-06-14,3410000,대구광역시 중구
2338,대구광역시 중구청,대구광역시 중구 국채보상로150길 75-23,대구광역시 중구 삼덕동3가 160-1,생활방범,1,200.0,360도 전방면,30.0,201712,053-661-2495,35.86524497,128.6115305,2019-06-14,3410000,대구광역시 중구
2339,대구광역시 중구청,대구광역시 중구 국채보상로 696-13,대구광역시 중구 동인동4가 194,생활방범,1,200.0,백련찻집,30.0,201712,053-661-2495,35.86815633,128.6067713,2019-06-14,3410000,대구광역시 중구
2340,대구광역시 중구청,대구광역시 중구 동덕로40길 38,대구광역시 중구 동인동3가 256-1,생활방범,1,200.0,둥지그린빌,30.0,201712,053-661-2495,35.87148084,128.6072282,2019-06-14,3410000,대구광역시 중구
2341,대구광역시 중구청,대구광역시 중구 달성로26길 32,대구광역시 중구 수창동 64,생활방범,2,200.0,제2수창공원,30.0,201710,053-661-2495,35.87541867,128.5832235,2019-06-14,3410000,대구광역시 중구
2342,대구광역시 중구청,대구광역시 중구 태평로 116,대구광역시 중구 태평로3가 218-13,생활방범,1,200.0,360도 전방면,30.0,201805,053-661-2495,35.875719000000004,128.5905017,2019-06-14,3410000,대구광역시 중구
2343,대구광역시 중구청,대구광역시 중구 태평로 119,대구광역시 중구 태평로2가 1-8,생활방범,1,200.0,360도 전방면,30.0,201805,053-661-2495,35.87603782,128.5909244,2019-06-14,3410000,대구광역시 중구
2344,대구광역시 중구청,대구광역시 중구 국채보상로 570-8,대구광역시 중구 전동 35,생활방범,1,200.0,360도 전방면,30.0,201805,053-661-2495,35.87040459,128.5927737,2019-06-14,3410000,대구광역시 중구
2345,대구광역시 중구청,대구광역시 중구 서성로 32,대구광역시 중구 남성로 152-2,생활방범,1,200.0,360도 전방면,30.0,201805,053-661-2495,35.86927952,128.58736159999998,2019-06-14,3410000,대구광역시 중구
2346,대구광역시 중구청,대구광역시 중구 종로 72-1,대구광역시 중구 대안동 78-1,생활방범,1,200.0,중부교회 부근,30.0,201805,053-661-2495,35.87230154,128.5910711,2019-06-14,3410000,대구광역시 중구
2347,대구광역시 중구청,대구광역시 중구 중앙대로81길 61,대구광역시 중구 종로1가 90-2,생활방범,1,200.0,360도 전방면,30.0,201805,053-661-2495,35.86946122,128.59024820000002,2019-06-14,3410000,대구광역시 중구
2348,대구광역시 중구청,대구광역시 중구 태평로 129-13,대구광역시 중구 태평로2가 38-8,생활방범,1,200.0,360도 전방면,30.0,201805,053-661-2495,35.87637015,128.5919586,2019-06-14,3410000,대구광역시 중구
2349,대구광역시 중구청,대구광역시 중구 달성공원로4길 13,대구광역시 중구 대신동 68-14,생활방범,1,200.0,360도 전방면,30.0,201805,053-661-2495,35.87156163,128.5802238,2019-06-14,3410000,대구광역시 중구
2350,대구광역시 중구청,대구광역시 중구 달성공원로6길 9,대구광역시 중구 대신동 1-31,생활방범,1,200.0,360도 전방면,30.0,201805,053-661-2495,35.87291916,128.58005590000002,2019-06-14,3410000,대구광역시 중구
2351,대구광역시 중구청,대구광역시 중구 달성공원로8길 31,대구광역시 중구 달성동 257-5,생활방범,1,200.0,360도 전방면,30.0,201805,053-661-2495,35.87355827,128.5818888,2019-06-14,3410000,대구광역시 중구
2352,대구광역시 중구청,대구광역시 중구 달성로21길 9-4,대구광역시 중구 달성동 219-25,생활방범,1,200.0,360도 전방면,30.0,201805,053-661-2495,35.87458788,128.5814399,2019-06-14,3410000,대구광역시 중구
2353,대구광역시 중구청,대구광역시 중구 달성로21길 53,대구광역시 중구 달성동 216-1,생활방범,1,200.0,360도 전방면,30.0,201805,053-661-2495,35.87554737,128.58001950000002,2019-06-14,3410000,대구광역시 중구
2354,대구광역시 중구청,대구광역시 중구 달성공원로 54-2,대구광역시 중구 달성동 293-1,생활방범,1,200.0,360도 전방면,30.0,201805,053-661-2495,35.87527821,128.5796555,2019-06-14,3410000,대구광역시 중구
2355,대구광역시 중구청,대구광역시 중구 달성공원로 68,대구광역시 중구 달성동 212-2,생활방범,1,200.0,360도 전방면,30.0,201805,053-661-2495,35.87615892,128.5787429,2019-06-14,3410000,대구광역시 중구
2356,대구광역시 중구청,대구광역시 중구 명륜로 127-27,대구광역시 중구 봉산동 224-12,생활방범,1,200.0,제일중학교,30.0,201804,053-661-2495,35.8611229,128.5979237,2019-06-14,3410000,대구광역시 중구
2357,대구광역시 중구청,대구광역시 중구 명륜로 127-15,대구광역시 중구 봉산동 224-20,생활방범,1,200.0,제일중학교,30.0,201804,053-661-2495,35.86062017,128.5980509,2019-06-14,3410000,대구광역시 중구
2359,대구광역시 중구청,대구광역시 중구 동덕로 56-9,대구광역시 중구 대봉동 28-45,생활방범,1,200.0,한정식외가집 앞,30.0,201506,053-661-2495,35.85996221,128.6049543,2019-06-14,3410000,대구광역시 중구
2360,대구광역시 중구청,대구광역시 중구 달성로21길 43,대구광역시 중구 달성동 218-15,생활방범,1,200.0,360도 전방면,30.0,201605,053-661-2495,35.87553771,128.5804799606,2019-06-14,3410000,대구광역시 중구
2361,대구광역시 중구청,대구광역시 중구 경상감영길 77,대구광역시 중구 포정동 30-1,생활방범,1,200.0,경상감영공원,30.0,201605,053-661-2495,35.87175384,128.5916005,2019-06-14,3410000,대구광역시 중구
2362,대구광역시 중구청,대구광역시 중구 경상감영길 99,대구광역시 중구 포정동 21,생활방범,1,200.0,360도 전방면,30.0,201605,053-661-2495,35.87267548,128.59168540000002,2019-06-14,3410000,대구광역시 중구
2363,대구광역시 중구청,대구광역시 중구 경상감영1길 41,대구광역시 중구 대안동 12,생활방범,1,200.0,360도 전방면,30.0,201605,053-661-2495,35.87281635,128.5927511,2019-06-14,3410000,대구광역시 중구
2364,대구광역시 중구청,대구광역시 중구 국채보상로 670,대구광역시 중구 동인동2가 78,생활방범,2,200.0,360도 전방면,30.0,201605,053-661-2495,35.86833404,128.6034536,2019-06-14,3410000,대구광역시 중구
2365,대구광역시 중구청,대구광역시 중구 동성로6길 26,대구광역시 중구 공평동 51-3,생활방범,2,200.0,360도 전방면,30.0,201605,053-661-2495,35.86877945,128.59680649999999,2019-06-14,3410000,대구광역시 중구
2366,대구광역시 중구청,대구광역시 중구 명덕로 261,대구광역시 중구 대봉동 156-1,생활방범,1,200.0,360도 전방면,30.0,201406,053-661-2495,35.85580074,128.5986006,2019-06-14,3410000,대구광역시 중구
2367,대구광역시 중구청,대구광역시 중구 달성공원로6길 1,대구광역시 중구 대신동 1-57,생활방범,1,200.0,360도 전방면,30.0,201406,053-661-2495,35.87288488,128.57964779999998,2019-06-14,3410000,대구광역시 중구
2368,대구광역시 중구청,대구광역시 중구 달성공원로8길 1,대구광역시 중구 달성동 286-3,생활방범,1,200.0,360도 전방면,30.0,201406,053-661-2495,35.87384261,128.580278,2019-06-14,3410000,대구광역시 중구
2369,대구광역시 중구청,대구광역시 중구 동성로3길 106,대구광역시 중구 공평동 13-5,생활방범,2,200.0,360도 전방면,30.0,201406,053-661-2495,35.86998219,128.5987925,2019-06-14,3410000,대구광역시 중구
2370,대구광역시 중구청,대구광역시 중구 동성로2길 71,대구광역시 중구 공평동 22-2,생활방범,2,200.0,360도 전방면,30.0,201406,053-661-2495,35.86918572,128.59688549999998,2019-06-14,3410000,대구광역시 중구
2371,대구광역시 중구청,대구광역시 중구 동성로2길 95,대구광역시 중구 문화동 19-1,생활방범,1,200.0,360도 전방면,30.0,201406,053-661-2495,35.87019118,128.5969013,2019-06-14,3410000,대구광역시 중구
2372,대구광역시 중구청,대구광역시 중구 공평로10길 42,대구광역시 중구 삼덕동2가 29-5,생활방범,1,200.0,360도 전방면,30.0,201406,053-661-2495,35.86769615,128.6020945,2019-06-14,3410000,대구광역시 중구
2373,대구광역시 중구청,대구광역시 중구 공평로10길 25,대구광역시 중구 동인동2가 42,생활방범,1,200.0,360도 전방면,30.0,201406,053-661-2495,35.86844014,128.6017153,2019-06-14,3410000,대구광역시 중구
2374,대구광역시 중구청,대구광역시 중구 공평로 46,대구광역시 중구 삼덕동2가 3-4,생활방범,2,200.0,360도 전방면,30.0,201605,053-661-2495,35.86810214,128.6000301,2019-06-14,3410000,대구광역시 중구
2375,대구광역시 중구청,대구광역시 중구 공평로10길 16,대구광역시 중구 삼덕동2가 16-1,생활방범,2,200.0,360도 전방면,30.0,201206,053-661-2495,35.86794224,128.60066899999998,2019-06-14,3410000,대구광역시 중구
2376,대구광역시 중구청,대구광역시 중구 남산로7길 24,대구광역시 중구 남산동 2488-15,생활방범,1,200.0,남산어린이공원 앞,30.0,201206,053-661-2495,35.85883469,128.58125520000002,2019-06-14,3410000,대구광역시 중구
2377,대구광역시 중구청,대구광역시 중구 큰장로 22길 50,대구광역시 중구 대신동 291-101,생활방범,1,200.0,대신놀이터 앞,30.0,201206,053-661-2495,35.86635817,128.5792835,2019-06-14,3410000,대구광역시 중구
2378,대구광역시 중구청,대구광역시 중구 달성공원로8길 1,대구광역시 중구 달성동 286-3,생활방범,3,200.0,360도 전방면,30.0,201406,053-661-2495,35.87384261,128.580278,2019-06-14,3410000,대구광역시 중구
2379,대구광역시 중구청,대구광역시 중구 경상감영길 99,대구광역시 중구 포정동 21,생활방범,2,200.0,경상감영공원,30.0,201206,053-661-2495,35.87267548,128.59168540000002,2019-06-14,3410000,대구광역시 중구
2380,대구광역시 중구청,대구광역시 중구 대봉로47길 32-12,대구광역시 중구 대봉동 719-19,생활방범,1,200.0,360도 전방면,30.0,201806,053-661-2495,35.85955385,128.599628,2019-06-14,3410000,대구광역시 중구
2381,대구광역시 중구청,대구광역시 중구 남산로3길 21-19,대구광역시 중구 남산4동 2623-3,생활방범,1,200.0,360도 전방면,30.0,201805,053-661-2495,35.86038601,128.57758859999998,2019-06-14,3410000,대구광역시 중구
2382,대구광역시 중구청,대구광역시 중구 남산로3길 28-14,대구광역시 중구 남산4동 2620-9,생활방범,1,200.0,360도 전방면,30.0,201805,053-661-2495,35.85980035,128.5788169,2019-06-14,3410000,대구광역시 중구
2383,대구광역시 중구청,대구광역시 중구 큰장로24길 13,대구광역시 중구 대신동 289-19,생활방범,1,200.0,360도 전방면,30.0,201805,053-661-2495,35.867385600000006,128.57954750000002,2019-06-14,3410000,대구광역시 중구
2384,대구광역시 중구청,대구광역시 중구 달성공원로6길 35,대구광역시 중구 시장북로 72-2,생활방범,1,200.0,360도 전방면,30.0,201805,053-661-2495,35.87270521,128.581522,2019-06-14,3410000,대구광역시 중구
2385,대구광역시 중구청,대구광역시 중구 달성공원로8길 15-38,대구광역시 중구 달성동 275-5,생활방범,1,200.0,360도 전방면,30.0,201805,053-661-2495,35.87393698,128.58105049999998,2019-06-14,3410000,대구광역시 중구
2386,대구광역시 중구청,대구광역시 중구 태평로 1-6,대구광역시 중구 달성동 172-1,생활방범,1,200.0,360도 전방면,30.0,201805,053-661-2495,35.87603591,128.59134070000002,2019-06-14,3410000,대구광역시 중구
2387,대구광역시 중구청,대구광역시 중구 태평로28길 7,대구광역시 중구 태평로2가 15-1,생활방범,1,200.0,360도 전방면,30.0,201805,053-661-2495,35.87512933,128.5920223,2019-06-14,3410000,대구광역시 중구
2388,대구광역시 중구청,대구광역시 중구 국채보상로99길 28,대구광역시 중구 시장북로 16-3,생활방범,1,200.0,360도 전방면,30.0,201805,053-661-2495,35.87189245,128.5832951,2019-06-14,3410000,대구광역시 중구
2389,대구광역시 중구청,대구광역시 중구 서성로13길 38,대구광역시 중구 인교동 208-4,생활방범,1,200.0,360도 전방면,30.0,201805,053-661-2495,35.87216143,128.58531100000002,2019-06-14,3410000,대구광역시 중구
2390,대구광역시 중구청,대구광역시 중구 북성로 28-9,대구광역시 중구 서야동 64,생활방범,1,200.0,360도 전방면,30.0,201805,053-661-2495,35.87320015,128.5852653,2019-06-14,3410000,대구광역시 중구
2391,대구광역시 중구청,대구광역시 중구 남산로3길 52,대구광역시 중구 남산동 2633-2,어린이보호,2,200.0,동화나라어린이집,30.0,201106,053-661-2495,35.86091523,128.57763899999998,2019-06-14,3410000,대구광역시 중구
2392,대구광역시 중구청,대구광역시 중구 남산로3안길 21,대구광역시 중구 남산동 2622-10,어린이보호,2,200.0,동화나라어린이집,30.0,201106,053-661-2495,35.860221,128.5772533,2019-06-14,3410000,대구광역시 중구
2393,대구광역시 중구청,대구광역시 중구 남산로3안길 21,대구광역시 중구 남산동 2622-10,어린이보호,2,200.0,동화나라어린이집,30.0,201106,053-661-2495,35.860221,128.5772533,2019-06-14,3410000,대구광역시 중구
2394,대구광역시 중구청,대구광역시 중구 명륜로23길 98-29,대구광역시 중구 봉산동 52-43,어린이보호,1,200.0,360도 전방면,30.0,201406,053-661-2495,35.86444442,128.5956257,2019-06-14,3410000,대구광역시 중구
2395,대구광역시 중구청,대구광역시 중구 명륜로21길 50,대구광역시 중구 남산동 916-15,어린이보호,2,200.0,360도 전방면,30.0,201605,053-661-2495,35.86283071,128.59472549999998,2019-06-14,3410000,대구광역시 중구
2396,대구광역시 중구청,대구광역시 중구 명륜로 23길 93,대구광역시 중구 남산동 912-5,어린이보호,2,200.0,대구초등학교,30.0,201205,053-661-2495,35.86411354,128.59475559999998,2019-06-14,3410000,대구광역시 중구
2397,대구광역시 중구청,대구광역시 중구 명륜로23길 69,대구광역시 중구 남산동 915-16,어린이보호,2,200.0,대구초등학교,30.0,201006,053-661-2495,35.86303804,128.59512809999998,2019-06-14,3410000,대구광역시 중구
2398,대구광역시 중구청,대구광역시 중구 봉산문화2길 20,대구광역시 중구 봉산동 89-1,어린이보호,3,200.0,360도 전방면,30.0,201605,053-661-2495,35.86339515,128.5961936,2019-06-14,3410000,대구광역시 중구
2399,대구광역시 중구청,대구광역시 중구 남산로15길 27,대구광역시 중구 남산동 2466-38,어린이보호,1,200.0,360도 전방면,30.0,201406,053-661-2495,35.86218185,128.58082140000002,2019-06-14,3410000,대구광역시 중구
2400,대구광역시 중구청,대구광역시 중구 남산로12안길 4,대구광역시 중구 남산동 115-4,어린이보호,1,200.0,360도 전방면,30.0,201406,053-661-2495,35.86245016,128.5842585,2019-06-14,3410000,대구광역시 중구
2401,대구광역시 중구청,대구광역시 중구 남산로17길 13,대구광역시 중구 남산동 2654-7,어린이보호,1,200.0,남산초등학교,30.0,201406,053-661-2495,35.86343752,128.581546,2019-06-14,3410000,대구광역시 중구
2402,대구광역시 중구청,대구광역시 중구 남산로 75-2,대구광역시 중구 남산동 104-21,어린이보호,1,200.0,360도 전방면,30.0,201311,053-661-2495,35.86336438,128.5821733,2019-06-14,3410000,대구광역시 중구
2403,대구광역시 중구청,대구광역시 중구 재마루길 64,대구광역시 중구 남산동 151-87,어린이보호,1,200.0,남산초등학교,30.0,201305,053-661-2495,35.86478772,128.58494270000003,2019-06-14,3410000,대구광역시 중구
2404,대구광역시 중구청,대구광역시 중구 남산로 17길18,대구광역시 중구 남산동 2654-6,어린이보호,1,200.0,360도 전방면,30.0,201205,053-661-2495,35.86358481,128.5813098,2019-06-14,3410000,대구광역시 중구
2405,대구광역시 중구청,대구광역시 중구 남산로12안길 23,대구광역시 중구 남산동 126-19,어린이보호,1,200.0,남산초등학교,30.0,201007,053-661-2495,35.86328693,128.58394750000002,2019-06-14,3410000,대구광역시 중구
2406,대구광역시 중구청,대구광역시 중구 재마루길 102,대구광역시 중구 남산동 158-3,어린이보호,3,200.0,360도 전방면,30.0,201605,053-661-2495,35.86386808,128.5833391,2019-06-14,3410000,대구광역시 중구
2407,대구광역시 중구청,대구광역시 중구 달구벌대로418길 26,대구광역시 중구 남산동 933-8,어린이보호,2,200.0,360도 전방면,30.0,201605,053-661-2495,35.86440086,128.59211770000002,2019-06-14,3410000,대구광역시 중구
2408,대구광역시 중구청,대구광역시 중구 관덕정길 16,대구광역시 중구 남산동 941-28,어린이보호,1,200.0,남산교회어린이집,30.0,201106,053-661-2495,35.86504487,128.59057620000002,2019-06-14,3410000,대구광역시 중구
2409,대구광역시 중구청,대구광역시 중구 남산로7길 45,대구광역시 중구 남산동 2482-425,어린이보호,2,200.0,360도 전방면,30.0,201605,053-661-2495,35.85880003,128.58005459999998,2019-06-14,3410000,대구광역시 중구
2410,대구광역시 중구청,대구광역시 중구 남산로7길 32,대구광역시 중구 남산동 2488-4,어린이보호,2,200.0,꿈나무어린이집,30.0,201106,053-661-2495,35.85872125,128.58083680000001,2019-06-14,3410000,대구광역시 중구
2411,대구광역시 중구청,대구광역시 중구 달구벌대로 1983-23,대구광역시 중구 대신동 319,어린이보호,1,200.0,계성초등학교,30.0,201305,053-661-2495,35.86561476,128.58154050000002,2019-06-14,3410000,대구광역시 중구
2412,대구광역시 중구청,대구광역시 중구 달구벌대로 1991-1,대구광역시 중구 대신동 926,어린이보호,2,200.0,360도 전방면,30.0,201605,053-661-2495,35.86507584,128.5816804,2019-06-14,3410000,대구광역시 중구
2413,대구광역시 중구청,대구광역시 중구 달성로 15-1,대구광역시 중구 대신동 995,어린이보호,3,200.0,360도 전방면,30.0,201605,053-661-2495,35.86651541,128.5821253,2019-06-14,3410000,대구광역시 중구
2414,대구광역시 중구청,대구광역시 중구 이천로 232,대구광역시 중구 봉산동 168-18,어린이보호,1,200.0,360도 전방면,30.0,201406,053-661-2495,35.86179552,128.5993852,2019-06-14,3410000,대구광역시 중구
2415,대구광역시 중구청,대구광역시 중구 대봉로 278,대구광역시 중구 대봉동 715-15,어린이보호,2,200.0,경대사대부속초등학교,30.0,201306,053-661-2495,35.86339223,128.5999354,2019-06-14,3410000,대구광역시 중구
2416,대구광역시 중구청,대구광역시 중구 봉산문화1길 17,대구광역시 중구 봉산동 168-126,어린이보호,2,200.0,경대사대부속초등학교,30.0,201205,053-661-2495,35.86304676,128.5982679,2019-06-14,3410000,대구광역시 중구
2417,대구광역시 중구청,대구광역시 중구 봉산문화길 88,대구광역시 중구 봉산동 132-17,어린이보호,3,200.0,360도 전방면,30.0,201605,053-661-2495,35.86386165,128.5968938,2019-06-14,3410000,대구광역시 중구
2418,대구광역시 중구청,대구광역시 중구 달구벌대로 2150,대구광역시 중구 봉산동 162,어린이보호,2,200.0,360도 전방면,30.0,201605,053-661-2495,35.86358293,128.59806609999998,2019-06-14,3410000,대구광역시 중구
2420,대구광역시 중구청,대구광역시 중구 큰장로24길 44,대구광역시 중구 대신동 292-6,어린이보호,2,200.0,360도 전방면,30.0,201406,053-661-2495,35.86637168,128.58044850000002,2019-06-14,3410000,대구광역시 중구
2421,대구광역시 중구청,대구광역시 중구 북성로 66-5,대구광역시 중구 북성로2가 47-7,생활방범,1,200.0,북성로 공중화장실,30.0,201606,053-661-2495,35.87370397,128.5896908,2019-06-14,3410000,대구광역시 중구
2422,대구광역시 중구청,대구광역시 중구 동덕로 8길 40-17,대구광역시 중구 대봉동 7-4,생활방범,1,200.0,영어학원(좌측),30.0,201506,053-661-2495,35.8601156,128.606423,2019-06-14,3410000,대구광역시 중구
2423,대구광역시 중구청,대구광역시 중구 동덕로8길 34-2,대구광역시 중구 대봉동 39-11,생활방범,1,200.0,360도 전방면,30.0,201506,053-661-2495,35.85972318,128.60557820000002,2019-06-14,3410000,대구광역시 중구
2424,대구광역시 중구청,대구광역시 중구 남산로4길 115,대구광역시 중구 남산동 207-1,어린이보호,1,200.0,성모유치원,30.0,201106,053-661-2495,35.862128399999996,128.5859702,2019-06-14,3410000,대구광역시 중구
2425,대구광역시 중구청,대구광역시 중구 달성공원로6길 23,대구광역시 중구 대신동 34-7,어린이보호,1,200.0,360도 전방면,30.0,201406,053-661-2495,35.87286938,128.58082549999997,2019-06-14,3410000,대구광역시 중구
2426,대구광역시 중구청,대구광역시 중구 국채보상로 451,대구광역시 중구 대신동 182-31,어린이보호,1,200.0,360도 전방면,30.0,201311,053-661-2495,35.87067729,128.58004240000002,2019-06-14,3410000,대구광역시 중구
2427,대구광역시 중구청,대구광역시 중구 달성공원로4길 25,대구광역시 중구 대신동 72-1,어린이보호,1,200.0,서문유치원,30.0,201106,053-661-2495,35.87165286,128.5809608,2019-06-14,3410000,대구광역시 중구
2428,대구광역시 중구청,대구광역시 중구 달성공원로4길 25,대구광역시 중구 대신동 72-1,어린이보호,1,200.0,서문유치원,30.0,201106,053-661-2495,35.87165286,128.5809608,2019-06-14,3410000,대구광역시 중구
2429,대구광역시 중구청,대구광역시 중구 달구벌대로 2016-8,대구광역시 중구 남산동 151-22,어린이보호,2,200.0,삼성어린이집,30.0,201106,053-661-2495,35.86496939999999,128.5842865,2019-06-14,3410000,대구광역시 중구
2430,대구광역시 중구청,대구광역시 중구 달구벌대로447길 8-14(삼덕동3가),대구광역시 중구 삼덕동3가 376-45,어린이보호,1,200.0,360도 전방면,30.0,201406,053-661-2495,35.86256309,128.6080399878,2019-06-14,3410000,대구광역시 중구
2431,대구광역시 중구청,대구광역시 중구 동덕로26길 103,대구광역시 중구 삼덕동3가 221,어린이보호,1,200.0,360도 전방면,30.0,201406,053-661-2495,35.8646331,128.6090427,2019-06-14,3410000,대구광역시 중구
2432,대구광역시 중구청,대구광역시 중구 달구벌대로447길 17,대구광역시 중구 삼덕동3가 327-5,어린이보호,1,200.0,삼덕초등학교,30.0,201305,053-661-2495,35.86325241,128.6074384,2019-06-14,3410000,대구광역시 중구
2433,대구광역시 중구청,대구광역시 중구 달구벌대로 445길 8-13,대구광역시 중구 삼덕동3가 352-3,어린이보호,2,200.0,삼덕초등학교,30.0,201205,053-661-2495,35.86294044,128.60704679999998,2019-06-14,3410000,대구광역시 중구
2434,대구광역시 중구청,대구광역시 중구 동덕로26길 102-17,대구광역시 중구 삼덕동3가 273-3,어린이보호,3,200.0,360도 전방면,30.0,201605,053-661-2495,35.86374699,128.6087281,2019-06-14,3410000,대구광역시 중구
2435,대구광역시 중구청,대구광역시 중구 달구벌대로447길 5,대구광역시 중구 삼덕동3가 370-2,어린이보호,2,200.0,삼덕초등학교,30.0,201006,053-661-2495,35.86272156,128.6072417,2019-06-14,3410000,대구광역시 중구
2436,대구광역시 중구청,대구광역시 중구 남산로7길 90,대구광역시 중구 남산동 2483-22,어린이보호,2,200.0,보나유치원,30.0,201605,053-661-2495,35.86060065,128.5790852,2019-06-14,3410000,대구광역시 중구
2437,대구광역시 중구청,대구광역시 중구 남산로3길 26,대구광역시 중구 남산동 2629-41,어린이보호,2,200.0,보나유치원,30.0,201106,053-661-2495,35.86020472,128.57876729999998,2019-06-14,3410000,대구광역시 중구
2438,대구광역시 중구청,대구광역시 중구 남산로7길 90,대구광역시 중구 남산동 2483-22,어린이보호,1,200.0,보나유치원,30.0,201106,053-661-2495,35.86060065,128.5790852,2019-06-14,3410000,대구광역시 중구
2439,대구광역시 중구청,대구광역시 중구 남산로 8길 27,대구광역시 중구 남산동 2176-16,어린이보호,1,200.0,360도 전방면,30.0,201406,053-661-2495,35.85846323,128.58782779999999,2019-06-14,3410000,대구광역시 중구
2440,대구광역시 중구청,대구광역시 중구 명덕로 181,대구광역시 중구 남산동 2110-8,어린이보호,1,200.0,360도 전방면,30.0,201406,053-661-2495,35.8572558,128.5899999,2019-06-14,3410000,대구광역시 중구
2441,대구광역시 중구청,대구광역시 중구 남산로2길 90,대구광역시 중구 남산동 2117-1,어린이보호,2,200.0,360도 전방면,30.0,201605,053-661-2495,35.85716569,128.5878196,2019-06-14,3410000,대구광역시 중구
2442,대구광역시 중구청,대구광역시 중구 2·28길 8(남산동),대구광역시 중구 남산동 844-3,어린이보호,2,200.0,명덕초등학교,30.0,201205,053-661-2495,35.85859359,128.5907794,2019-06-14,3410000,대구광역시 중구
2443,대구광역시 중구청,대구광역시 중구 명덕로 181,대구광역시 중구 남산동 2110-8,어린이보호,3,200.0,360도 전방면,30.0,201605,053-661-2495,35.8572558,128.5899999,2019-06-14,3410000,대구광역시 중구
2444,대구광역시 중구청,대구광역시 중구 동덕로30길 90,대구광역시 중구 삼덕동3가 120-1,어린이보호,1,200.0,360도 전방면,30.0,201406,053-661-2495,35.86624942,128.6086636,2019-06-14,3410000,대구광역시 중구
2445,대구광역시 중구청,대구광역시 중구 국채보상로142길 29,대구광역시 중구 동인동4가 302-2,어린이보호,2,200.0,360도 전방면,30.0,201605,053-661-2495,35.86725877,128.6089276,2019-06-14,3410000,대구광역시 중구
2446,대구광역시 중구청,대구광역시 중구 국채보상로150길 38-6,대구광역시 중구 동인동4가 423-4,어린이보호,2,200.0,동인초등학교,30.0,201205,053-661-2495,35.86681494,128.6108449,2019-06-14,3410000,대구광역시 중구
2447,대구광역시 중구청,대구광역시 중구 국채보상로 736-19,대구광역시 중구 동인동4가 432-1,어린이보호,2,200.0,동인초등학교,30.0,201205,053-661-2495,35.8674934,128.6110535,2019-06-14,3410000,대구광역시 중구
2448,대구광역시 중구청,대구광역시 중구 국채보상로 720-16,대구광역시 중구 동인동4가 330-1,어린이보호,2,200.0,360도 전방면,30.0,201605,053-661-2495,35.86780939,128.609262,2019-06-14,3410000,대구광역시 중구
2449,대구광역시 중구청,대구광역시 중구 국채보상로 732,대구광역시 중구 동인동4가 383-3,어린이보호,2,200.0,동인초등학교,30.0,201605,053-661-2495,35.86831068,128.61058740000001,2019-06-14,3410000,대구광역시 중구
2450,대구광역시 중구청,대구광역시 중구 달구벌대로443길 15-30,대구광역시 중구 삼덕동2가 259-3,어린이보호,1,200.0,360도 전방면,30.0,201406,053-661-2495,35.8641066,128.6036695,2019-06-14,3410000,대구광역시 중구
2451,대구광역시 중구청,대구광역시 중구 달구벌대로 2201-22,대구광역시 중구 삼덕동2가 278-1,어린이보호,1,200.0,360도 전방면,30.0,201305,053-661-2495,35.8640256,128.6046067,2019-06-14,3410000,대구광역시 중구
2452,대구광역시 중구청,대구광역시 중구 공평로 8길 30-10,대구광역시 중구 삼덕동2가 128-8,어린이보호,1,200.0,360도 전방면,30.0,201305,053-661-2495,35.86620732,128.601294,2019-06-14,3410000,대구광역시 중구
2453,대구광역시 중구청,대구광역시 중구 달구벌대로 443길 25-19,대구광역시 중구 삼덕동2가 258-5,어린이보호,2,200.0,동덕초등학교,30.0,201205,053-661-2495,35.86410323,128.60419199999998,2019-06-14,3410000,대구광역시 중구
2454,대구광역시 중구청,대구광역시 중구 동덕로 114-24,대구광역시 중구 삼덕동2가 250-1,어린이보호,1,200.0,동덕초등학교,30.0,201006,053-661-2495,35.86447777,128.6044874,2019-06-14,3410000,대구광역시 중구
2455,대구광역시 중구청,대구광역시 중구 동덕로 26길 18,대구광역시 중구 삼덕동2가 226-1,어린이보호,3,200.0,360도 전방면,30.0,201605,053-661-2495,35.86540395,128.6042315,2019-06-14,3410000,대구광역시 중구
2456,대구광역시 중구청,대구광역시 중구 북성로3길 27,대구광역시 중구 인교동 49,어린이보호,1,200.0,360도 전방면,30.0,201506,053-661-2495,35.87475776,128.5830465,2019-06-14,3410000,대구광역시 중구
2457,대구광역시 중구청,대구광역시 중구 서성로 81,대구광역시 중구 수창동 101-11,어린이보호,1,200.0,360도 전방면,30.0,201506,053-661-2495,35.87402242,128.58741640000002,2019-06-14,3410000,대구광역시 중구
2458,대구광역시 중구청,대구광역시 중구 남산로12길 83-6,대구광역시 중구 남산동 190-53,어린이보호,1,200.0,360도 전방면,30.0,201506,053-661-2495,35.86351308,128.5864761,2019-06-14,3410000,대구광역시 중구
2459,대구광역시 중구청,대구광역시 중구 남산로6길 26,대구광역시 중구 남산동 2185-47,어린이보호,1,200.0,360도 전방면,30.0,201506,053-661-2495,35.8589653,128.5863854,2019-06-14,3410000,대구광역시 중구
2460,대구광역시 중구청,대구광역시 중구 달구벌대로447길 49,대구광역시 중구 삼덕동3가 245-1,어린이보호,1,200.0,360도 전방면,30.0,201506,053-661-2495,35.86464958,128.60781200000002,2019-06-14,3410000,대구광역시 중구
2461,대구광역시 중구청,대구광역시 중구 달구벌대로443길 8-15,대구광역시 중구 삼덕동3가 354-3,어린이보호,1,200.0,360도 전방면,30.0,201506,053-661-2495,35.86319261,128.6059803,2019-06-14,3410000,대구광역시 중구
2462,대구광역시 중구청,대구광역시 중구 2·28길 24(남산동),대구광역시 중구 남산동 886,어린이보호,1,200.0,360도 전방면,30.0,201506,053-661-2495,35.85879891,128.5899732,2019-06-14,3410000,대구광역시 중구
2463,대구광역시 중구청,대구광역시 중구 국채보상로142길 19-2,대구광역시 중구 동인동4가 325-13,어린이보호,1,200.0,360도 전방면,30.0,201506,053-661-2495,35.86769935,128.6088656,2019-06-14,3410000,대구광역시 중구
2464,대구광역시 중구청,대구광역시 중구 국채보상로142길 33-29,대구광역시 중구 동인동4가 400-4,어린이보호,1,200.0,360도 전방면,30.0,201506,053-661-2495,35.86703661,128.60963600000002,2019-06-14,3410000,대구광역시 중구
2465,대구광역시 중구청,대구광역시 중구 동덕로30길 139-34,대구광역시 중구 동인동4가 529-3,어린이보호,1,200.0,360도 전방면,30.0,201506,053-661-2495,35.86642841,128.61171389999998,2019-06-14,3410000,대구광역시 중구
2466,대구광역시 중구청,대구광역시 중구 명륜로23길 37,대구광역시 중구 남산동 918-5,어린이보호,1,200.0,360도 전방면,30.0,201506,053-661-2495,35.86168039,128.5955747,2019-06-14,3410000,대구광역시 중구
2467,대구광역시 중구청,대구광역시 중구 봉산문화2길 16-24,대구광역시 중구 봉산동 67-2,어린이보호,1,200.0,360도 전방면,30.0,201506,053-661-2495,35.86234497,128.5962877,2019-06-14,3410000,대구광역시 중구
2468,대구광역시 중구청,대구광역시 중구 남산로12길 12,대구광역시 중구 남산동 2439-22,어린이보호,1,200.0,360도 전방면,30.0,201506,053-661-2495,35.86166689,128.5832466,2019-06-14,3410000,대구광역시 중구
2469,대구광역시 중구청,대구광역시 중구 달구벌대로 2088-2,대구광역시 중구 남산동 938-12,어린이보호,1,200.0,360도 전방면,30.0,201506,053-661-2495,35.865283399999996,128.5916172,2019-06-14,3410000,대구광역시 중구
2470,대구광역시 중구청,대구광역시 중구 남산로6길 15,대구광역시 중구 남산동 2210-26,어린이보호,1,200.0,360도 전방면,30.0,201506,053-661-2495,35.85913943,128.5857557,2019-06-14,3410000,대구광역시 중구
2471,대구광역시 중구청,대구광역시 중구 2·28길 31-1(남산동),대구광역시 중구 남산동 2174-5,어린이보호,1,200.0,360도 전방면,30.0,201506,053-661-2495,35.85860886,128.58935390000002,2019-06-14,3410000,대구광역시 중구
2472,대구광역시 중구청,대구광역시 중구 서성로14길 21-2,대구광역시 중구 서내동 51-3,어린이보호,1,200.0,360도 전방면,30.0,201406,053-661-2495,35.8726189,128.5888808,2019-06-14,3410000,대구광역시 중구
2473,대구광역시 중구청,대구광역시 중구 경상감영길 27-18,대구광역시 중구 서내동 65-5,어린이보호,1,200.0,종로초등학교,30.0,201205,053-661-2495,35.87204399,128.58901550000002,2019-06-14,3410000,대구광역시 중구
2474,대구광역시 중구청,대구광역시 중구 경상감영길 35,대구광역시 중구 서문로1가 11-6,어린이보호,2,200.0,종로초등학교,30.0,201205,053-661-2495,35.87144394,128.5894154,2019-06-14,3410000,대구광역시 중구
2475,대구광역시 중구청,대구광역시 중구 서성로 14길 59,대구광역시 중구 대안동 70-3,어린이보호,2,200.0,종로초등학교,30.0,201205,053-661-2495,35.8729218,128.590778,2019-06-14,3410000,대구광역시 중구
2476,대구광역시 중구청,대구광역시 중구 달구벌대로 2017,대구광역시 중구 동산동 825,어린이보호,2,200.0,원만사유치원,30.0,201205,053-661-2495,35.86585769,128.5844415,2019-06-14,3410000,대구광역시 중구
2477,대구광역시 중구청,대구광역시 중구 달성로26길 35,대구광역시 중구 도원동 3-2,어린이보호,1,200.0,360도 전방면,30.0,201406,053-661-2495,35.87598014,128.5841072,2019-06-14,3410000,대구광역시 중구
2478,대구광역시 중구청,대구광역시 중구 북성로 6,대구광역시 중구 인교동 74-1,어린이보호,1,200.0,360도 전방면,30.0,201406,053-661-2495,35.87338659,128.58288190000002,2019-06-14,3410000,대구광역시 중구
2479,대구광역시 중구청,대구광역시 중구 달성로22길 54,대구광역시 중구 수창동 81-4,어린이보호,1,200.0,360도 전방면,30.0,201406,053-661-2495,35.874709100000004,128.5850961,2019-06-14,3410000,대구광역시 중구
2480,대구광역시 중구청,대구광역시 중구 북성로5길 10,대구광역시 중구 수창동 79-6,어린이보호,2,200.0,수창초등학교,30.0,201205,053-661-2495,35.87404406,128.5849588,2019-06-14,3410000,대구광역시 중구
2481,대구광역시 중구청,대구광역시 중구 북성로 3길 27,대구광역시 중구 인교동 49,어린이보호,1,200.0,수창초등학교,30.0,201205,053-661-2495,35.87475776,128.5830465,2019-06-14,3410000,대구광역시 중구
2482,대구광역시 중구청,대구광역시 중구 달성로 22길 27,대구광역시 중구 수창동 58-8,어린이보호,2,200.0,수창초등학교,30.0,201205,053-661-2495,35.87538881,128.58384740000002,2019-06-14,3410000,대구광역시 중구
2483,대구광역시 중구청,대구광역시 중구 달성로 26길 1,대구광역시 중구 수창동 115,어린이보호,1,200.0,수창초등학교,30.0,201205,053-661-2495,35.87628492,128.5823151,2019-06-14,3410000,대구광역시 중구
2484,대구광역시 중구청,대구광역시 중구 남산로3길 8,대구광역시 중구 남산동 2612-65,어린이보호,1,200.0,360도 전방면,30.0,201406,053-661-2495,35.85940477,128.578198,2019-06-14,3410000,대구광역시 중구
2485,대구광역시 중구청,대구광역시 중구 남산로4길 38,대구광역시 중구 남산동 2220-1,어린이보호,1,200.0,360도 전방면,30.0,201406,053-661-2495,35.85859167,128.5849256,2019-06-14,3410000,대구광역시 중구
2486,대구광역시 중구청,대구광역시 중구 남산로4길 62,대구광역시 중구 남산동 2208-20,어린이보호,2,200.0,성모유치원,30.0,201106,053-661-2495,35.8596196,128.5854243,2019-06-14,3410000,대구광역시 중구
2487,대구광역시 중구청,대구광역시 중구 남산로4길 87,대구광역시 중구 남산동 2430-1,어린이보호,2,200.0,성모유치원,30.0,201106,053-661-2495,35.86079723,128.5855053,2019-06-14,3410000,대구광역시 중구
2488,대구광역시 중구청,대구광역시 중구 동성로2길 45,대구광역시 중구 삼덕동1가 5-12,생활방범,1,200.0,금융결제원,30.0,201511,053-661-2495,35.86805977,128.5964422,2019-06-14,3410000,대구광역시 중구
2489,대구광역시 중구청,대구광역시 중구 동성로3길 35,대구광역시 중구 삼덕동1가 15-1,재난재해,1,41.0,갤러리죤 재난감시,30.0,200806,053-661-2894,35.86693484,128.5972787,2019-06-14,3410000,대구광역시 중구
2490,대구광역시 중구청,대구광역시 중구 교동 2길 22,대구광역시 중구 교동57-4,재난재해,1,41.0,교동시장 재난감시,30.0,200806,053-661-2894,35.87345278,128.597755,2019-06-14,3410000,대구광역시 중구
2491,대구광역시 중구청,대구광역시 중구 큰장로 26길 6,대구광역시 중구 대신동115-400,재난재해,1,41.0,서문시장 재난감시,30.0,200806,053-661-2894,35.86808473,128.5784631,2019-06-14,3410000,대구광역시 중구
2492,대구광역시 중구청,대구광역시 중구 명덕로 333,대구광역시 중구 대봉동 214,재난재해,1,41.0,대백프라자 재난감시,30.0,200806,053-661-2894,35.85571524,128.6063608,2019-06-14,3410000,대구광역시 중구
2493,대구광역시 중구청,대구광역시 중구 동덕로36길 152(동인동4가),대구광역시 중구 동인동4가 461,재난재해,1,200.0,360도 전방면,30.0,201506,053-661-2894,35.86918762,128.6126599,2019-06-14,3410000,대구광역시 중구
2495,대구광역시 중구청,대구광역시 중구 동덕로 182,대구광역시 중구 동인동1가 292-1,어린이보호,1,200.0,360도 전방면,30.0,201806,053-661-2495,35.87082742,128.6046065,2019-06-14,3410000,대구광역시 중구
2496,대구광역시 중구청,대구광역시 중구 명륜로23길 58-5,대구광역시 중구 봉산동 60-3,어린이보호,1,200.0,360도 전방면,30.0,201806,053-661-2495,35.86272693,128.5957551,2019-06-14,3410000,대구광역시 중구
2497,대구광역시 중구청,대구광역시 중구 남산로 60-1,대구광역시 중구 남산동 111-12,어린이보호,1,200.0,360도 전방면,30.0,201806,053-661-2495,35.86211911,128.5828482,2019-06-14,3410000,대구광역시 중구
2498,대구광역시 중구청,대구광역시 중구 동덕로30길 45,대구광역시 중구 동인동4가 251,어린이보호,1,200.0,360도 전방면,30.0,201806,053-661-2495,35.86701855,128.6064074,2019-06-14,3410000,대구광역시 중구
2499,대구광역시 중구청,대구광역시 중구 남산로8길 70-1,대구광역시 중구 남산동 217-21,어린이보호,1,200.0,360도 전방면,30.0,201806,053-661-2495,35.86006727,128.5889181,2019-06-14,3410000,대구광역시 중구
2500,대구광역시 중구청,대구광역시 중구 국채보상로149길 26-7,대구광역시 중구 동인동3가 220-3,어린이보호,1,200.0,360도 전방면,30.0,201806,053-661-2495,35.8697912,128.6117333,2019-06-14,3410000,대구광역시 중구
2501,대구광역시 중구청,대구광역시 중구 중앙대로 377,대구광역시 중구 동성로3가 64-2,어린이보호,1,200.0,360도 전방면,30.0,201806,053-661-2495,35.86684698,128.5933091,2019-06-14,3410000,대구광역시 중구
2502,대구광역시 중구청,대구광역시 중구 동덕로26길 121,대구광역시 중구 삼덕동3가 217-5,어린이보호,1,200.0,360도 전방면,30.0,201605,053-661-2495,35.86440112,128.6099458,2019-06-14,3410000,대구광역시 중구
2503,대구광역시 중구청,대구광역시 중구 공평로4길 37-10,대구광역시 중구 삼덕동2가 149-120,어린이보호,2,200.0,동덕초등학교,30.0,201605,053-661-2495,35.86553499,128.6022458,2019-06-14,3410000,대구광역시 중구
2504,대구광역시 중구청,대구광역시 중구 남산로2길 69,대구광역시 중구 남산동 2191-5,어린이보호,1,200.0,360도 전방면,30.0,201605,053-661-2495,35.85727523,128.5866218,2019-06-14,3410000,대구광역시 중구
2505,대구광역시 중구청,대구광역시 중구 명륜로21길 8-4,대구광역시 중구 남산동 688-9,어린이보호,1,200.0,360도 전방면,30.0,201605,053-661-2495,35.86082724,128.59494660000001,2019-06-14,3410000,대구광역시 중구
2506,대구광역시 중구청,대구광역시 중구 중앙대로66길 7-1,대구광역시 중구 남산동 671-46,어린이보호,1,200.0,360도 전방면,30.0,201605,053-661-2495,35.86212621,128.5934892,2019-06-14,3410000,대구광역시 중구
2507,대구광역시 중구청,대구광역시 중구 봉산문화1길 28-10,대구광역시 중구 봉산동 176,어린이보호,1,200.0,경대사대부속초등학교,30.0,201605,053-661-2495,35.862734100000004,128.5990099863,2019-06-14,3410000,대구광역시 중구
2508,대구광역시 중구청,대구광역시 중구 북성로3길 5,대구광역시 중구 인교동 80,어린이보호,1,200.0,360도 전방면,30.0,201605,053-661-2495,35.87382051,128.5833246,2019-06-14,3410000,대구광역시 중구
2509,대구광역시 중구청,대구광역시 중구 남산로2길 15,대구광역시 중구 남산3동 2382-14,어린이보호,1,200.0,360도 전방면,30.0,201605,053-661-2495,35.85713773,128.58365690000002,2019-06-14,3410000,대구광역시 중구
2510,대구광역시 중구청,대구광역시 중구 동덕로26길 34-11,대구광역시 중구 삼덕동2가 228-5,어린이보호,1,200.0,동덕초등학교,30.0,201605,053-661-2495,35.86477023,128.6052593,2019-06-14,3410000,대구광역시 중구
2511,대구광역시 중구청,대구광역시 중구 남산로12길 3,대구광역시 중구 남산동 110-2,어린이보호,2,200.0,360도 전방면,30.0,201605,053-661-2495,35.8617695,128.5828457,2019-06-14,3410000,대구광역시 중구
2512,대구광역시 중구청,대구광역시 중구 관덕정길 27,대구광역시 중구 남산동 628-5,어린이보호,1,200.0,360도 전방면,30.0,201605,053-661-2495,35.86443797,128.5909493,2019-06-14,3410000,대구광역시 중구
2513,대구광역시 중구청,대구광역시 중구 남산로7길 75,대구광역시 중구 남산동 2482-458,어린이보호,1,200.0,360도 전방면,30.0,201605,053-661-2495,35.85967259,128.5792129,2019-06-14,3410000,대구광역시 중구
2514,대구광역시 중구청,대구광역시 중구 달성로 19-1,대구광역시 중구 대신동 991,어린이보호,1,200.0,계성초등학교,30.0,201605,053-661-2495,35.86691908,128.5821288,2019-06-14,3410000,대구광역시 중구
2515,대구광역시 중구청,대구광역시 중구 남산로12길 63-30,대구광역시 중구 남산동137-3,어린이보호,1,200.0,남산초등학교,30.0,201507,053-661-2495,35.86383042,128.5851008,2019-06-14,3410000,대구광역시 중구
2516,대구광역시 중구청,대구광역시 중구 공평로4길 10,대구광역시 중구 삼덕2가 149-32,어린이보호,1,200.0,360도 전방면,30.0,201507,053-661-2495,35.86524154,128.60046409999998,2019-06-14,3410000,대구광역시 중구
2517,대구광역시 중구청,대구광역시 중구 달성로17-7,대구광역시 중구 대신동 279-27,어린이보호,1,200.0,계성초등학교,30.0,201507,053-661-2495,35.86685195,128.5820257,2019-06-14,3410000,대구광역시 중구
2518,대구광역시 중구청,대구광역시 중구 중앙대로77길 35,대구광역시 중구 종로2가 43-4,어린이보호,1,200.0,360도 전방면,30.0,201506,053-661-2495,35.86831115,128.59162460000002,2019-06-14,3410000,대구광역시 중구
2519,대구광역시 중구청,대구광역시 중구 서성로16길 22,대구광역시 중구 북내동 34-2,어린이보호,1,200.0,360도 전방면,30.0,201506,053-661-2495,35.87313439,128.5888779,2019-06-14,3410000,대구광역시 중구
2520,대구광역시 중구청,대구광역시 중구 서성로16길 72,대구광역시 중구 대안동 50-8,어린이보호,1,200.0,360도 전방면,30.0,201506,053-661-2495,35.87312515,128.5914818,2019-06-14,3410000,대구광역시 중구
2521,대구광역시 중구청,대구광역시 중구 큰장로22길 30,대구광역시 중구 대신동 271-39,생활방범,2,200.0,대양주차장,30.0,201511,053-661-2495,35.86704502,128.5785842,2019-06-14,3410000,대구광역시 중구
2522,대구광역시 중구청,대구광역시 중구 동성로6길 49,대구광역시 중구 공평동 16-19,생활방범,2,200.0,공평주차장,30.0,201506,053-661-2495,35.86871263,128.5980363,2019-06-14,3410000,대구광역시 중구
2523,대구광역시 중구청,대구광역시 중구 명덕로65길 50,대구광역시 중구 대봉동 117-12,생활방범,2,200.0,대백귀금속,30.0,201506,053-661-2495,35.85728638,128.60531650000001,2019-06-14,3410000,대구광역시 중구
2524,대구광역시 중구청,대구광역시 중구 국채보상로143길 67-15,대구광역시 중구 동인동3가 270-7,생활방범,2,200.0,그린로즈빌라,30.0,200712,053-661-2495,35.87177419,128.60766370000002,2019-06-14,3410000,대구광역시 중구
2525,대구광역시 중구청,대구광역시 중구 동덕로38길 107,대구광역시 중구 동인동3가 234-3,생활방범,2,200.0,동인삼익맨션,30.0,200712,053-661-2495,35.87099371,128.6104955,2019-06-14,3410000,대구광역시 중구
2526,대구광역시 중구청,대구광역시 중구 국채보상로139길 66-6,대구광역시 중구 동인동3가 271-188,생활방범,2,200.0,360도 전방면,30.0,201605,053-661-2495,35.87190638,128.6066743,2019-06-14,3410000,대구광역시 중구
2527,대구광역시 중구청,대구광역시 중구 달구벌대로443길 50,대구광역시 중구 삼덕동3가 256-3,생활방범,2,200.0,경대병원영안실,30.0,200712,053-661-2495,35.86509094,128.6058061,2019-06-14,3410000,대구광역시 중구
2528,대구광역시 중구청,대구광역시 중구 달구벌대로447길 31-1,대구광역시 중구 삼덕동3가 315-1,생활방범,2,200.0,평화공인중개사,30.0,201605,053-661-2495,35.86386631,128.60762350000002,2019-06-14,3410000,대구광역시 중구
2529,대구광역시 중구청,대구광역시 중구 동덕로14길 30,대구광역시 중구 대봉1동 35-4,생활방범,2,200.0,360도 전방면,30.0,201605,053-661-2495,35.86078512,128.6054137,2019-06-14,3410000,대구광역시 중구
2530,대구광역시 중구청,대구광역시 중구 명덕로55길 10-19(대봉동),대구광역시 중구 대봉동 173-41,생활방범,2,200.0,360도 전방면,30.0,201605,053-661-2495,35.85595263,128.6009991,2019-06-14,3410000,대구광역시 중구
2531,대구광역시 중구청,대구광역시 중구 달구벌대로440길 34,대구광역시 중구 대봉1동 25-15,생활방범,2,200.0,대봉1동주민센터,30.0,201511,053-661-2495,35.8613561,128.6042252,2019-06-14,3410000,대구광역시 중구
2532,대구광역시 중구청,대구광역시 중구 명덕로65길 27,대구광역시 중구 대봉동 122-16,생활방범,2,200.0,대봉웨딩프로,30.0,201511,053-661-2495,35.85642341,128.6048873,2019-06-14,3410000,대구광역시 중구
2533,대구광역시 중구청,대구광역시 중구 대봉로43안길 30-16(대봉동),대구광역시 중구 대봉동 147-9,생활방범,2,200.0,대봉새마을금고,30.0,200712,053-661-2495,35.85862519,128.6000699,2019-06-14,3410000,대구광역시 중구
2534,대구광역시 중구청,대구광역시 중구 봉산문화길 50,대구광역시 중구 봉산동 223-2,생활방범,2,200.0,봉산문화회관,30.0,200712,053-661-2495,35.86236838,128.5977805,2019-06-14,3410000,대구광역시 중구
2535,대구광역시 중구청,대구광역시 중구 명륜로24길 41,대구광역시 중구 남산동 732-29,생활방범,2,200.0,경북여고 뒤편,30.0,201506,053-661-2495,35.85851677,128.5954848,2019-06-14,3410000,대구광역시 중구
2536,대구광역시 중구청,대구광역시 중구 달구벌대로 2105,대구광역시 중구 덕산동 96,생활방범,2,200.0,덕산빌딩입구,30.0,201506,053-661-2495,35.86579148,128.59407620000002,2019-06-14,3410000,대구광역시 중구
2537,대구광역시 중구청,대구광역시 중구 남산로6길 52,대구광역시 중구 남산동 2178-19,생활방범,2,200.0,복지마트,30.0,201506,053-661-2495,35.85839598,128.5871888,2019-06-14,3410000,대구광역시 중구
2538,대구광역시 중구청,대구광역시 중구 명륜로22길 14,대구광역시 중구 남산동 726-42,생활방범,2,200.0,도루묵식당,30.0,201506,053-661-2495,35.86003813,128.5943817,2019-06-14,3410000,대구광역시 중구
2539,대구광역시 중구청,대구광역시 중구 남산로17길 85,대구광역시 중구 남산동 2635-1,생활방범,2,200.0,360도 전방면,30.0,201506,053-661-2495,35.86173563,128.57857190000001,2019-06-14,3410000,대구광역시 중구
2540,대구광역시 중구청,대구광역시 중구 남산로1길 42,대구광역시 중구 남산동 2508-1,생활방범,2,200.0,360도 전방면,30.0,201605,053-661-2495,35.85822372,128.5805701,2019-06-14,3410000,대구광역시 중구
2541,대구광역시 중구청,대구광역시 중구 관덕정길 56,대구광역시 중구 남산동 622-17,생활방범,3,200.0,세광세탁소,30.0,201506,053-661-2495,35.86327956,128.5910502,2019-06-14,3410000,대구광역시 중구
2542,대구광역시 중구청,대구광역시 중구 동성로 8-5,대구광역시 중구 동성로3가 112-1,생활방범,1,200.0,늑대골목,30.0,201511,053-661-2495,35.86749532,128.5947038,2019-06-14,3410000,대구광역시 중구
2543,대구광역시 중구청,대구광역시 중구 동성로12길 5,대구광역시 중구 동문동 37-4,생활방범,1,200.0,롯데영프라자(파크랜드뒤),30.0,201506,053-661-2495,35.87173378,128.5960996,2019-06-14,3410000,대구광역시 중구
2544,대구광역시 중구청,대구광역시 중구 중앙대로 432-20,대구광역시 중구 동성로2가 16-10,생활방범,1,200.0,롯데영프라자(신협앞),30.0,201511,053-661-2495,35.87153365,128.5954269,2019-06-14,3410000,대구광역시 중구
2545,대구광역시 중구청,대구광역시 중구 동성로3길 12-22,대구광역시 중구 삼덕동1가 36-3,생활방범,2,200.0,경대생활관,30.0,201506,053-661-2495,35.86557136,128.59843370000002,2019-06-14,3410000,대구광역시 중구
2546,대구광역시 중구청,대구광역시 중구 중앙대로 391,대구광역시 중구 동성로3가 8,생활방범,1,200.0,농협중앙회,30.0,201511,053-661-2495,35.86798269,128.5930175,2019-06-14,3410000,대구광역시 중구
2547,대구광역시 중구청,대구광역시 중구 교동길 13-6,대구광역시 중구 화전동 10,생활방범,1,200.0,교동전자골목,30.0,201511,053-661-2495,35.8736127,128.59548629999998,2019-06-14,3410000,대구광역시 중구
2548,대구광역시 중구청,대구광역시 중구 달구벌대로 2109-31,대구광역시 중구 덕산동 124-3,생활방범,1,200.0,360도 전방면,30.0,201605,053-661-2495,35.86672143,128.593807,2019-06-14,3410000,대구광역시 중구
2549,대구광역시 중구청,대구광역시 중구 남성로 50,대구광역시 중구 남성로 93-1,생활방범,1,200.0,360도 전방면,30.0,201506,053-661-2495,35.86716665,128.5920357,2019-06-14,3410000,대구광역시 중구
2550,대구광역시 중구청,대구광역시 중구 달구벌대로447길 72-1,대구광역시 중구 삼덕동3가 176-5,생활방범,1,200.0,삼덕주민센터,30.0,201511,053-661-2495,35.86561142,128.6083939,2019-06-14,3410000,대구광역시 중구
2551,대구광역시 중구청,대구광역시 중구 동성로3길 84,대구광역시 중구 공평동 58-1,생활방범,1,200.0,공평주차장,30.0,201506,053-661-2495,35.8690294,128.5983393,2019-06-14,3410000,대구광역시 중구
2552,대구광역시 중구청,대구광역시 중구 공평로 31,대구광역시 중구 삼덕동1가 63-11,생활방범,1,200.0,삼덕소방서 앞,30.0,201511,053-661-2495,35.86658058,128.5995213,2019-06-14,3410000,대구광역시 중구
2553,대구광역시 중구청,대구광역시 중구 태평로4길 19,대구광역시 중구 달성동 67-1,생활방범,1,200.0,360도 전방면,30.0,201312,053-661-2495,35.87701552,128.5793888,2019-06-14,3410000,대구광역시 중구
2554,대구광역시 중구청,대구광역시 중구 종로 106,대구광역시 중구 태평로2가 28-3,생활방범,1,200.0,360도 전방면,30.0,201312,053-661-2495,35.87529137,128.5912195,2019-06-14,3410000,대구광역시 중구
2555,대구광역시 중구청,대구광역시 중구 중앙대로58길 95-4,대구광역시 중구 대봉동 590-198,생활방범,1,200.0,360도 전방면,30.0,201605,053-661-2495,35.85707709,128.5964079,2019-06-14,3410000,대구광역시 중구
2556,대구광역시 중구청,대구광역시 중구 동성로5길 80,대구광역시 중구 삼덕동1가 27-2,생활방범,1,200.0,360도 전방면,30.0,201312,053-661-2495,35.86702292,128.5987862,2019-06-14,3410000,대구광역시 중구
2557,대구광역시 중구청,대구광역시 중구 동성로4길 46,대구광역시 중구 삼덕동1가 58-3,생활방범,1,200.0,360도 전방면,30.0,201312,053-661-2495,35.86673919,128.5989797,2019-06-14,3410000,대구광역시 중구
2558,대구광역시 중구청,대구광역시 중구 명덕로55길 8,대구광역시 중구 대봉동 162-16,생활방범,1,200.0,360도 전방면,30.0,201312,053-661-2495,35.85585372,128.6000363,2019-06-14,3410000,대구광역시 중구
2559,대구광역시 중구청,대구광역시 중구 중앙대로 412-21,대구광역시 중구 동성로2가 90-1,생활방범,1,200.0,360도 전방면,30.0,201312,053-661-2495,35.86998219,128.5949972,2019-06-14,3410000,대구광역시 중구
2560,대구광역시 중구청,대구광역시 중구 국채보상로 749,대구광역시 중구 동인동4가 470-2,생활방범,1,200.0,360도 전방면,30.0,201312,053-661-2495,35.86883225,128.6122807,2019-06-14,3410000,대구광역시 중구
2561,대구광역시 중구청,대구광역시 중구 달구벌대로 1922-1(남산동),대구광역시 중구 남산동 2960-6,생활방범,1,200.0,중부소방서 뒤편,30.0,201605,053-661-2495,35.86242705,128.5747774,2019-06-14,3410000,대구광역시 중구
2562,대구광역시 중구청,대구광역시 중구 국채보상로 465,대구광역시 중구 대신동 109,생활방범,1,200.0,360도 전방면,30.0,201312,053-661-2495,35.87077133,128.58166070000001,2019-06-14,3410000,대구광역시 중구
2563,대구광역시 중구청,대구광역시 중구 태평로2길 10,대구광역시 중구 달성동 183,생활방범,1,200.0,백년약국,30.0,201211,053-661-2495,35.87755044,128.5790052,2019-06-14,3410000,대구광역시 중구
2564,대구광역시 중구청,대구광역시 중구 원대로 11,대구광역시 중구 달성동 118-3,생활방범,1,200.0,금오맨션 앞,30.0,201210,053-661-2495,35.87849828,128.5801136,2019-06-14,3410000,대구광역시 중구
2565,대구광역시 중구청,대구광역시 중구 남산로15길 32-3,대구광역시 중구 남산동 2475-14,생활방범,1,200.0,남산동골목,30.0,201605,053-661-2495,35.862505299999995,128.58089420000002,2019-06-14,3410000,대구광역시 중구
2566,대구광역시 중구청,대구광역시 중구 공평로8길 6,대구광역시 중구 삼덕동2가 143-6,생활방범,1,200.0,삼덕동골목,30.0,201605,053-661-2495,35.86676498,128.6002911,2019-06-14,3410000,대구광역시 중구
2567,대구광역시 중구청,대구광역시 중구 동성로3길 38,대구광역시 중구 삼덕동1가 28-26,생활방범,2,200.0,자이유,30.0,201210,053-661-2495,35.86701054,128.5978205,2019-06-14,3410000,대구광역시 중구
2568,대구광역시 중구청,대구광역시 중구 동성로4길 24,대구광역시 중구 삼덕동1가 53-10,생활방범,2,200.0,로데오거리,30.0,201210,053-661-2495,35.86587733,128.5987366,2019-06-14,3410000,대구광역시 중구
2569,대구광역시 중구청,대구광역시 중구 공평로10길 30-74,대구광역시 중구 삼덕동2가 29-60,생활방범,1,200.0,홍길아파트 앞,30.0,201106,053-661-2495,35.86687937,128.6030655,2019-06-14,3410000,대구광역시 중구
2570,대구광역시 중구청,대구광역시 중구 달구벌대로389길 56,대구광역시 중구 대신동 1621,생활방범,2,200.0,대신동 OK포인트마트,30.0,201106,053-661-2495,35.86593918,128.5760558,2019-06-14,3410000,대구광역시 중구
2571,대구광역시 중구청,대구광역시 중구 명륜로22안길 41,대구광역시 중구 대봉동 590-345,생활방범,1,200.0,대봉동 590-345,30.0,201106,053-661-2495,35.85794407,128.5962659,2019-06-14,3410000,대구광역시 중구
2572,대구광역시 중구청,대구광역시 중구 대봉로43길 21(대봉동),대구광역시 중구 대봉2동 145-6,생활방범,1,200.0,대봉2동미소슈퍼 앞,30.0,201106,053-661-2495,35.85735402,128.6005181,2019-06-14,3410000,대구광역시 중구
2573,대구광역시 중구청,대구광역시 중구 동덕로 18,대구광역시 중구 대봉동 122-11,생활방범,1,200.0,서덕순한복연구소,30.0,201106,053-661-2495,35.85668205,128.6046844,2019-06-14,3410000,대구광역시 중구
2574,대구광역시 중구청,대구광역시 중구 태평로6길 23,대구광역시 중구 달성동 92-1,생활방범,1,200.0,달성동새마을금고,30.0,201106,053-661-2495,35.87667414,128.5804051,2019-06-14,3410000,대구광역시 중구
2575,대구광역시 중구청,대구광역시 중구 2·28길 18-15,대구광역시 중구 남산동 599-14,생활방범,1,200.0,남산1동주민센터앞,30.0,201106,053-661-2495,35.85934789,128.5904358,2019-06-14,3410000,대구광역시 중구
2576,대구광역시 중구청,대구광역시 중구 서성로13길 13,대구광역시 중구 서성로1가 78-3,생활방범,2,200.0,8번식당,30.0,201506,053-661-2495,35.872142600000004,128.58673670000002,2019-06-14,3410000,대구광역시 중구
2577,대구광역시 중구청,대구광역시 중구 국채보상로101길 45,대구광역시 중구 시장북로 11-8,생활방범,2,200.0,오토바이골목,30.0,201506,053-661-2495,35.87239823,128.5834823,2019-06-14,3410000,대구광역시 중구
2578,대구광역시 중구청,대구광역시 중구 큰장로12길 86,대구광역시 중구 대신동 269-11,생활방범,2,200.0,서문시장,30.0,201506,053-661-2495,35.86711327,128.5772304,2019-06-14,3410000,대구광역시 중구
2579,대구광역시 중구청,대구광역시 중구 북성로 74-1,대구광역시 중구 북성로2가 58-2,생활방범,2,200.0,영진안전물산,30.0,201605,053-661-2495,35.87392836,128.5904394,2019-06-14,3410000,대구광역시 중구
2580,대구광역시 중구청,대구광역시 중구 달성로22길 33,대구광역시 중구 수창동 61,생활방범,2,200.0,대호전기,30.0,201605,053-661-2495,35.87497898,128.5840385,2019-06-14,3410000,대구광역시 중구
2581,대구광역시 중구청,대구광역시 중구 서성로 49-6,대구광역시 중구 서문로2가 15-4,생활방범,2,200.0,덕영주차장,30.0,201605,053-661-2495,35.87112044,128.5868935,2019-06-14,3410000,대구광역시 중구
2582,대구광역시 중구청,대구광역시 중구 달성로21길 55,대구광역시 중구 달성동 350-8,생활방범,2,200.0,360도 전방면,30.0,201605,053-661-2495,35.87562323,128.5797332,2019-06-14,3410000,대구광역시 중구
2583,대구광역시 중구청,대구광역시 중구 서성로14길 25,대구광역시 중구 서내동 53-4,생활방범,2,200.0,더 스타일 커피숍 앞,30.0,201605,053-661-2495,35.87280418,128.589044,2019-06-14,3410000,대구광역시 중구
2584,대구광역시 중구청,대구광역시 중구 북성로 16,대구광역시 중구 인교동 114-8,생활방범,2,200.0,동양베어링,30.0,201605,053-661-2495,35.87476947,128.5938797,2019-06-14,3410000,대구광역시 중구
2871,광주광역시청,광주광역시 남구 백운로5번길 43,광주광역시 남구 백운동 613-4,생활방범,4,200.0,360°,30.0,201411,062-613-6444,35.1341911,126.905204,2020-03-27,6290000,광주광역시
2948,서울특별시 성동구청,서울특별시 성동구 동호로 76-3,서울특별시 성동구 금호동4가 1299-16,생활방범,3,200.0,360도 전방면,30.0,201712,02-2286-5879,37.54618,127.016271,2020-06-08,3030000,서울특별시 성동구
2949,서울특별시 성동구청,서울특별시 성동구 장터길 2,서울특별시 성동구 금호동4가 1466,생활방범,3,200.0,360도 전방면,30.0,201712,02-2286-5879,37.548161,127.01604499999999,2020-06-08,3030000,서울특별시 성동구
2952,서울특별시 성동구청,서울특별시 성동구 장터3길 3,서울특별시 성동구 금호동3가 863,생활방범,2,200.0,360도 전방면,30.0,201712,02-2286-5879,37.548607000000004,127.020004,2020-06-08,3030000,서울특별시 성동구
2953,서울특별시 성동구청,서울특별시 성동구 독서당로 251,서울특별시 성동구 금호동4가 987,생활방범,3,200.0,360도 전방면,30.0,201712,02-2286-5879,37.546085,127.016815,2020-06-08,3030000,서울특별시 성동구
2955,서울특별시 성동구청,서울특별시 성동구 무수막12길 8-2,서울특별시 성동구 금호동2가 650,생활방범,2,200.0,정면 90도,30.0,201712,02-2286-5879,37.552170000000004,127.021454,2020-06-08,3030000,서울특별시 성동구
2956,대구광역시 중구청,대구광역시 중구 달구벌대로450길 6,대구광역시 중구 대봉동 2-31,생활방범,1,200.0,360도 전방면,30.0,201312,053-661-2495,35.8615388,128.60754550000001,2019-06-14,3410000,대구광역시 중구
2957,대구광역시 중구청,대구광역시 중구 동덕로8길 40-20,대구광역시 중구 대봉동 36-7,생활방범,1,200.0,대봉동 김광석거리,30.0,201312,053-661-2495,35.85985867,128.60649750000002,2019-06-14,3410000,대구광역시 중구
2958,대구광역시 중구청,대구광역시 중구 신천대로 677(대봉동),대구광역시 중구 대봉동 31-30,생활방범,1,200.0,대봉동 김광석거리,30.0,201312,053-661-2495,35.85930118,128.60640659999999,2019-06-14,3410000,대구광역시 중구
2959,대구광역시 중구청,대구광역시 중구 동성로5길 25,대구광역시 중구 삼덕동1가 5-2,생활방범,1,200.0,360도 전방면,30.0,201412,053-661-2495,35.86800363,128.5960558,2019-06-14,3410000,대구광역시 중구
2960,대구광역시 중구청,대구광역시 중구 동성로3길 6,대구광역시 중구 삼덕동 1가 35-3,생활방범,1,200.0,360도 전방면,30.0,201312,053-661-2495,35.86559968,128.5973892,2019-06-14,3410000,대구광역시 중구
2961,대구광역시 중구청,대구광역시 중구 공평로 8길 29,대구광역시 중구 삼덕동 2가 28-1,생활방범,1,200.0,360도 전방면,30.0,201312,053-661-2495,35.86679737,128.6016468,2019-06-14,3410000,대구광역시 중구
2962,대구광역시 중구청,대구광역시 중구 서성로 94-1,대구광역시 중구 수창동 41-6,차량방범,2,200.0,신성철망 앞,30.0,201305,053-661-2495,35.87498117,128.587967,2019-06-14,3410000,대구광역시 중구
2963,대구광역시 중구청,대구광역시 중구 국채보상로 732,대구광역시 중구 동인동4가 382-3,차량방범,3,150.0,동인초등학교 주변,30.0,201205,053-661-2495,35.86831068,128.61058740000001,2019-06-14,3410000,대구광역시 중구
3021,대구광역시 중구청,대구광역시 중구 북성로4길 11,대구광역시 중구 인교동 138-4,생활방범,1,200.0,360도 전방면,30.0,200805,053-661-2495,35.87313347,128.5837626,2019-06-14,3410000,대구광역시 중구
3022,대구광역시 중구청,대구광역시 중구 중앙대로 391,대구광역시 중구 동성로3가 8,생활방범,1,200.0,동성로3가 8,30.0,200805,053-661-2495,35.86798269,128.5930175,2019-06-14,3410000,대구광역시 중구
3023,대구광역시 중구청,대구광역시 중구 명륜로23길 38-5,대구광역시 중구 봉산동 230-448,생활방범,1,200.0,360도 전방면,30.0,200805,053-661-2495,35.86177984,128.5959576,2019-06-14,3410000,대구광역시 중구
3024,대구광역시 중구청,대구광역시 중구 이천로 230-26,대구광역시 중구 봉산동 185-15,생활방범,1,200.0,360도 전방면,30.0,200805,053-661-2495,35.86125695,128.6000386,2019-06-14,3410000,대구광역시 중구
3025,대구광역시 중구청,대구광역시 중구 동성로6길 2-5,대구광역시 중구 동성로2가 151-3,생활방범,1,200.0,동성로2가 151-3,30.0,200805,053-661-2495,35.86881868,128.5957533,2019-06-14,3410000,대구광역시 중구
3026,대구광역시 중구청,대구광역시 중구 동성로3길 12-20,대구광역시 중구 삼덕동1가 36-10,생활방범,1,200.0,동성로3길 12-20,30.0,200805,053-661-2495,35.86556592,128.5983008,2019-06-14,3410000,대구광역시 중구
3027,대구광역시 중구청,대구광역시 중구 동성로2길 50-14,대구광역시 중구 삼덕동1가 18-2,생활방범,2,200.0,삼덕동1가 18-2,30.0,200805,053-661-2495,35.8678524,128.597399,2019-06-14,3410000,대구광역시 중구
3028,대구광역시 중구청,대구광역시 중구 동덕로 198-32,대구광역시 중구 동인동1가 349-1,생활방범,1,200.0,동인동1가 349-1,30.0,200805,053-661-2495,35.87205498,128.6058049,2019-06-14,3410000,대구광역시 중구
3029,대구광역시 중구청,대구광역시 중구 동덕로36길 107,대구광역시 중구 동인동3가 192-28,생활방범,1,200.0,360도 전방면,30.0,200805,053-661-2495,35.86947331,128.6101725,2019-06-14,3410000,대구광역시 중구
3030,대구광역시 중구청,대구광역시 중구 동덕로36길 81,대구광역시 중구 동인동3가 192-73,생활방범,1,200.0,360도 전방면,30.0,200805,053-661-2495,35.86969634,128.6088617,2019-06-14,3410000,대구광역시 중구
3031,대구광역시 중구청,대구광역시 중구 동덕로30길 151-38,대구광역시 중구 동인동4가 497-2,생활방범,1,200.0,360도 전방면,30.0,200805,053-661-2495,35.86733656,128.61253390000002,2019-06-14,3410000,대구광역시 중구
3032,대구광역시 중구청,대구광역시 중구 명륜로22안길 26-9,대구광역시 중구 대봉동 590-48,생활방범,1,200.0,명륜로22안길 26-9,30.0,201503,053-661-2495,35.85751073,128.59578340000002,2019-06-14,3410000,대구광역시 중구
3033,대구광역시 중구청,대구광역시 중구 이천로 184-8,대구광역시 중구 대봉동 152-82,생활방범,1,200.0,360도 전방면,30.0,201503,053-661-2495,35.85754408,128.5989677,2019-06-14,3410000,대구광역시 중구
3034,대구광역시 중구청,대구광역시 중구 명륜로28길 41-1,대구광역시 중구 대봉동 736-18,생활방범,1,200.0,명륜로28길 41-1,30.0,201503,053-661-2495,35.85786541,128.5978451,2019-06-14,3410000,대구광역시 중구
3035,대구광역시 중구청,대구광역시 중구 남산로13길 55-17,대구광역시 중구 남산동 2480-14,생활방범,1,200.0,360도 전방면,30.0,201503,053-661-2495,35.86047514,128.5801321,2019-06-14,3410000,대구광역시 중구
3036,대구광역시 중구청,대구광역시 중구 동덕로36길 105-15,대구광역시 중구 동인동3가 192-31,생활방범,1,200.0,360도 전방면,30.0,201512,053-661-2495,35.87010584,128.6100436,2019-06-14,3410000,대구광역시 중구
3037,대구광역시 중구청,대구광역시 중구 동덕로36길 39,대구광역시 중구 동인동3가 3-1,생활방범,1,200.0,360도 전방면,30.0,201512,053-661-2495,35.87014883,128.6065636,2019-06-14,3410000,대구광역시 중구
3038,대구광역시 중구청,대구광역시 중구 국채보상로131길 42,대구광역시 중구 동인동1가 226-15,생활방범,1,200.0,360도 전방면,30.0,201512,053-661-2495,35.87168982,128.60237859999998,2019-06-14,3410000,대구광역시 중구
3039,대구광역시 중구청,대구광역시 중구 국채보상로151길 19,대구광역시 중구 동인동3가 213-4,생활방범,1,200.0,360도 전방면,30.0,201512,053-661-2495,35.86940316,128.61217720000002,2019-06-14,3410000,대구광역시 중구
3040,대구광역시 중구청,대구광역시 중구 남산로1길 116,대구광역시 중구 남산동 2612-58,생활방범,1,200.0,360도 전방면,30.0,201512,053-661-2495,35.85967133,128.577114,2019-06-14,3410000,대구광역시 중구
3041,대구광역시 중구청,대구광역시 중구 남산로7길 99-7,대구광역시 중구 남산동 2628-10,생활방범,1,200.0,360도 전방면,30.0,201512,053-661-2495,35.86075643,128.5782026,2019-06-14,3410000,대구광역시 중구
3042,대구광역시 중구청,대구광역시 중구 남산로1길 154-8(남산동),대구광역시 중구 남산동 2945-10,생활방범,1,200.0,360도 전방면,30.0,201512,053-661-2495,35.86054933,128.5755815,2019-06-14,3410000,대구광역시 중구
3043,대구광역시 중구청,대구광역시 중구 남산로8길 63,대구광역시 중구 남산동 217-16,생활방범,1,200.0,360도 전방면,30.0,201512,053-661-2495,35.85990369,128.5884764,2019-06-14,3410000,대구광역시 중구
3044,대구광역시 중구청,대구광역시 중구 중앙대로 280-33,대구광역시 중구 남산동 2099-1,생활방범,1,200.0,360도 전방면,30.0,201512,053-661-2495,35.85798845,128.5923791,2019-06-14,3410000,대구광역시 중구
3045,대구광역시 중구청,대구광역시 중구 달구벌대로 2210-19,대구광역시 중구 대봉동 16-1,생활방범,1,200.0,360도 전방면,30.0,201511,053-661-2495,35.86159411,128.6047569,2019-06-14,3410000,대구광역시 중구
3046,대구광역시 중구청,대구광역시 중구 대봉로43안길 30-16(대봉동),대구광역시 중구 대봉동 147-9,생활방범,1,200.0,360도 전방면,30.0,201511,053-661-2495,35.85862519,128.6000699,2019-06-14,3410000,대구광역시 중구
3047,대구광역시 중구청,대구광역시 중구 남산로1길 82,대구광역시 중구 남산동 2611-16,생활방범,1,200.0,360도 전방면,30.0,201511,053-661-2495,35.85887799,128.5787853,2019-06-14,3410000,대구광역시 중구
3048,대구광역시 중구청,대구광역시 중구 국채보상로102길 34-4,대구광역시 중구 동산동 182-18,생활방범,1,200.0,동산동 182-18,30.0,201511,053-661-2495,35.86892562,128.5857736,2019-06-14,3410000,대구광역시 중구
3049,대구광역시 중구청,대구광역시 중구 중앙대로 298-22,대구광역시 중구 남산동 714-8,생활방범,1,200.0,중앙대로 298-22,30.0,201503,053-661-2495,35.85930329,128.5929854,2019-06-14,3410000,대구광역시 중구
3050,대구광역시 중구청,대구광역시 중구 달성공원로 78-23,대구광역시 중구 달성동 180-17,생활방범,1,200.0,달성공원로 78-23,30.0,201503,053-661-2495,35.87688378,128.5784428,2019-06-14,3410000,대구광역시 중구
3051,대구광역시 중구청,대구광역시 중구 문우관길 30-20,대구광역시 중구 남산동 623-11,생활방범,2,200.0,문우관길 30-20,30.0,201503,053-661-2495,35.86379726,128.5906089,2019-06-14,3410000,대구광역시 중구
3052,대구광역시 중구청,대구광역시 중구 달구벌대로450길 10,대구광역시 중구 대봉동 2-11,생활방범,1,200.0,대봉동 김광석거리,30.0,201312,053-661-2495,35.86148215,128.60746909999997,2019-06-14,3410000,대구광역시 중구
3053,대구광역시 중구청,대구광역시 중구 문우관길 11,대구광역시 중구 남산동 570-4,쓰레기단속,1,50.0,롤러커피 삼거리코너,3.0,201405,053-661-3281,35.86444521,128.5895856,2019-06-14,3410000,대구광역시 중구
3054,대구광역시 중구청,대구광역시 중구 공평로10길 30-58,대구광역시 중구 삼덕동2가 29-19,쓰레기단속,1,50.0,드림하이츠,3.0,201405,053-661-3281,35.86712223,128.6021538,2019-06-14,3410000,대구광역시 중구
3055,대구광역시 중구청,대구광역시 중구 명륜로28길 13,대구광역시 중구 대봉동 739-24,쓰레기단속,1,200.0,"동국사 인근,향교인근",30.0,201502,053-661-3281,35.85908897,128.5977235,2019-06-14,3410000,대구광역시 중구
3056,대구광역시 중구청,대구광역시 중구 남산로8길 53,대구광역시 중구 남산동 216-20,쓰레기단속,1,200.0,화진빌라 앞 화단,30.0,201502,053-661-3281,35.85957189,128.58821740000002,2019-06-14,3410000,대구광역시 중구
3057,대구광역시 중구청,대구광역시 중구 큰장로24안길 40,대구광역시 중구 대신동 301-10,쓰레기단속,1,200.0,"흥진건재 앞,태왕후문",30.0,201502,053-661-3281,35.86592725,128.5786107,2019-06-14,3410000,대구광역시 중구
3058,대구광역시 중구청,대구광역시 중구 명륜로12길 33-22,대구광역시 중구 남산동584-1,쓰레기단속,1,200.0,심인당 불교법당 입구,30.0,201502,053-661-3281,35.86185507,128.5883781,2019-06-14,3410000,대구광역시 중구
3059,대구광역시 중구청,대구광역시 중구 약령길 28,대구광역시 중구 계산동2가 138-2,쓰레기단속,1,200.0,"소울치킨,이상화고택뒤",30.0,201502,053-661-3281,35.867723600000005,128.5889027,2019-06-14,3410000,대구광역시 중구
3060,대구광역시 중구청,대구광역시 중구 명륜로23길 98-3,대구광역시 중구 봉산동 54-1,쓰레기단속,1,50.0,대구초등 삼삼구이근처,3.0,201502,053-661-3281,35.86435506,128.59502609999998,2019-06-14,3410000,대구광역시 중구
3061,대구광역시 중구청,대구광역시 중구 남산로4길 18-10,대구광역시 중구 남산동 2219-23,쓰레기단속,1,200.0,아우디 내리막길,30.0,201502,053-661-3281,35.85769898,128.5853772,2019-06-14,3410000,대구광역시 중구
3062,대구광역시 중구청,대구광역시 중구 명륜로26길 67,대구광역시 중구 대봉동 734-6,쓰레기단속,1,200.0,"민들레어린이집,고물상",30.0,201502,053-661-3281,35.85703921,128.5973591,2019-06-14,3410000,대구광역시 중구
3063,대구광역시 중구청,대구광역시 중구 동덕로14길 18-1,대구광역시 중구 대봉동 32-10,쓰레기단속,1,50.0,아이숲어린이집 앞,3.0,201502,053-661-3281,35.86079388,128.6047585,2019-06-14,3410000,대구광역시 중구
3064,대구광역시 중구청,대구광역시 중구 동덕로 14길 52,대구광역시 중구 대봉동 7-5,쓰레기단속,1,200.0,"김광석길,내리막길",30.0,201502,053-661-3281,35.86044559,128.6065448,2019-06-14,3410000,대구광역시 중구
3065,대구광역시 중구청,대구광역시 중구 공평로4길 32-5,대구광역시 중구 삼덕동2가 149-135,쓰레기단속,1,200.0,봉투창고뒤,30.0,201502,053-661-3281,35.86502328,128.6016952,2019-06-14,3410000,대구광역시 중구
3066,대구광역시 중구청,대구광역시 중구 공평로10길 30-66,대구광역시 중구 삼덕동2가 29-79,쓰레기단속,1,50.0,심플하우스 앞,3.0,201502,053-661-3281,35.86705595,128.6025288,2019-06-14,3410000,대구광역시 중구
3067,대구광역시 중구청,대구광역시 중구 동덕로30길 63-24,대구광역시 중구 동인동4가 228-6,쓰레기단속,1,50.0,삼정그린아파트 후문,3.0,201502,053-661-3281,35.86769622,128.607754,2019-06-14,3410000,대구광역시 중구
3068,대구광역시 중구청,대구광역시 중구 대봉로 194(대봉동),대구광역시 중구 대봉동 178-7,생활방범,1,200.0,360도 전방면,30.0,200805,053-661-2495,35.85605633,128.6024137,2019-06-14,3410000,대구광역시 중구
3069,대구광역시 중구청,대구광역시 중구 달구벌대로 2178,대구광역시 중구 대봉동 60-18,생활방범,1,200.0,대봉동 60-18,30.0,200805,053-661-2495,35.86253967,128.6006179,2019-06-14,3410000,대구광역시 중구
3070,대구광역시 중구청,대구광역시 중구 남산로1길 114-24,대구광역시 중구 남산동 2612-45,생활방범,1,200.0,360도 전방면,30.0,200805,053-661-2495,35.85993097,128.5773804,2019-06-14,3410000,대구광역시 중구
3071,대구광역시 중구청,대구광역시 중구 남산로8길 38,대구광역시 중구 남산동 2114-14,생활방범,1,200.0,360도 전방면,30.0,200805,053-661-2495,35.85878217,128.5882415,2019-06-14,3410000,대구광역시 중구
3072,대구광역시 중구청,대구광역시 중구 남산로4길 90,대구광역시 중구 남산동 2200,생활방범,1,200.0,남산동 2200,30.0,200805,053-661-2495,35.86061485,128.5862146,2019-06-14,3410000,대구광역시 중구
3073,대구광역시 중구청,대구광역시 중구 남산로 44-47,대구광역시 중구 남산동 2439-25,생활방범,1,200.0,360도 전방면,30.0,200805,053-661-2495,35.86157908,128.5830722,2019-06-14,3410000,대구광역시 중구
3074,대구광역시 중구청,대구광역시 중구 명륜로 7-15,대구광역시 중구 남산동 402,생활방범,1,200.0,360도 전방면,30.0,200805,053-661-2495,35.86579279,128.5890811,2019-06-14,3410000,대구광역시 중구
3075,대구광역시 중구청,대구광역시 중구 달구벌대로414길 16-9,대구광역시 중구 남산동 413-1,생활방범,1,200.0,360도 전방면,30.0,200805,053-661-2495,35.86531518,128.5892177,2019-06-14,3410000,대구광역시 중구
3076,대구광역시 중구청,대구광역시 중구 명륜로 43-17,대구광역시 중구 남산동 618-3,생활방범,1,200.0,남산동 618-3,30.0,200805,053-661-2495,35.86331508,128.5900014,2019-06-14,3410000,대구광역시 중구
3077,대구광역시 중구청,대구광역시 중구 명륜로11길 24,대구광역시 중구 남산동 620-19,생활방범,1,200.0,360도 전방면,30.0,200805,053-661-2495,35.86307047,128.5907803,2019-06-14,3410000,대구광역시 중구
3078,대구광역시 중구청,대구광역시 중구 명륜로12길 30,대구광역시 중구 남산동 581-6,생활방범,1,200.0,360도 전방면,30.0,200805,053-661-2495,35.862834299999996,128.5887431,2019-06-14,3410000,대구광역시 중구
3079,대구광역시 중구청,대구광역시 중구 명륜로12길 16,대구광역시 중구 남산동 580-30,생활방범,1,200.0,360도 전방면,30.0,200805,053-661-2495,35.86248088,128.5895729,2019-06-14,3410000,대구광역시 중구
3080,대구광역시 중구청,대구광역시 중구 중앙대로58길 15-18,대구광역시 중구 남산동 2108-75,생활방범,1,200.0,남산동 2108-75,30.0,200805,053-661-2495,35.85805037,128.591787,2019-06-14,3410000,대구광역시 중구
3081,대구광역시 중구청,대구광역시 중구 명륜로24길 11-29,대구광역시 중구 남산동 735-67,생활방범,1,200.0,360도 전방면,30.0,200805,053-661-2495,35.85933254,128.5953993,2019-06-14,3410000,대구광역시 중구
3082,대구광역시 중구청,대구광역시 중구 명륜로24길 11-2,대구광역시 중구 남산동 735-49,생활방범,1,200.0,360도 전방면,30.0,200805,053-661-2495,35.85972171,128.59513700000002,2019-06-14,3410000,대구광역시 중구
3083,대구광역시 중구청,대구광역시 중구 달구벌대로 1983-10,대구광역시 중구 대신동 958,생활방범,1,200.0,360도 전방면,30.0,200805,053-661-2495,35.86501959,128.5812984,2019-06-14,3410000,대구광역시 중구
3084,대구광역시 중구청,대구광역시 중구 큰장로10길 27,대구광역시 중구 대신동 1275,생활방범,1,200.0,360도 전방면,30.0,200805,053-661-2495,35.86467388,128.5752381,2019-06-14,3410000,대구광역시 중구
3085,대구광역시 중구청,대구광역시 중구 명륜로22안길 43,대구광역시 중구 대봉동 590-18,쓰레기단속,1,50.0,경로당 인근,3.0,201611,053-661-3281,35.85802786,128.5964712,2019-06-14,3410000,대구광역시 중구
3086,대구광역시 중구청,대구광역시 중구 대봉로 200-8,대구광역시 중구 대봉동 179-9,쓰레기단속,1,50.0,청운빌라 앞,3.0,201611,053-661-3281,35.85632441,128.60258290000002,2019-06-14,3410000,대구광역시 중구
3087,대구광역시 중구청,대구광역시 중구 동덕로36길 55,대구광역시 중구 동인동3가 20-19,쓰레기단속,1,50.0,동삼아파트 앞,3.0,201611,053-661-3281,35.8700059,128.6072781,2019-06-14,3410000,대구광역시 중구
3088,대구광역시 중구청,대구광역시 중구 공평로8길 45-6,대구광역시 중구 삼덕동2가 40-10,쓰레기단속,1,200.0,청담빌 앞,30.0,201611,053-661-3281,35.86663958,128.6026666,2019-06-14,3410000,대구광역시 중구
3089,대구광역시 중구청,대구광역시 중구 달성로 51,대구광역시 중구 대신동 115-301,쓰레기단속,1,50.0,동산상가 육교,3.0,201611,053-661-3281,35.86967429999999,128.58202859999997,2019-06-14,3410000,대구광역시 중구
3090,대구광역시 중구청,대구광역시 중구 국채보상로149길 26-1,대구광역시 중구 동인동3가 217-3,쓰레기단속,1,50.0,프린터oa 앞,3.0,201611,053-661-3281,35.86980051,128.6113084,2019-06-14,3410000,대구광역시 중구
3091,대구광역시 중구청,대구광역시 중구 달구벌대로 2220,대구광역시 중구 대봉동 13-7,쓰레기단속,1,50.0,방천시장 빕스앞,3.0,201006,053-661-3281,35.86229998,128.6058826,2019-06-14,3410000,대구광역시 중구
3092,대구광역시 중구청,대구광역시 중구 공평로8길 16,대구광역시 중구 삼덕동2가 134,쓰레기단속,1,50.0,관음사 앞,3.0,201006,053-661-3281,35.86669002,128.6007767,2019-06-14,3410000,대구광역시 중구
3093,대구광역시 중구청,대구광역시 중구 동성로2길 49-9(삼덕동1가),대구광역시 중구 삼덕동1가 83,쓰레기단속,1,50.0,로데오거리 명의관,3.0,201006,053-661-3281,35.86817815,128.59621429999999,2019-06-14,3410000,대구광역시 중구
3094,대구광역시 중구청,대구광역시 중구 명륜로 43-8,대구광역시 중구 남산동 617-14,쓰레기단속,1,50.0,영림정밀인쇄 앞,3.0,201006,053-661-3281,35.86286196,128.5904662,2019-06-14,3410000,대구광역시 중구
3095,대구광역시 중구청,대구광역시 중구 동성로12길 14-1(문화동),대구광역시 중구 문화동 22,쓰레기단속,1,50.0,교동 소방서,3.0,201006,053-661-3281,35.87150541,128.59646709999998,2019-06-14,3410000,대구광역시 중구
3096,대구광역시 중구청,대구광역시 중구 중앙대로 446-4,대구광역시 중구 화전동 21,쓰레기단속,1,50.0,대구극장 인근,3.0,201006,053-661-3281,35.87283711,128.5947179,2019-06-14,3410000,대구광역시 중구
3097,대구광역시 중구청,대구광역시 중구 국채보상로131길 60,대구광역시 중구 동인동1가 217,쓰레기단속,1,50.0,시청아트타운,3.0,201006,053-661-3281,35.87239506,128.60274270000002,2019-06-14,3410000,대구광역시 중구
3098,대구광역시 중구청,대구광역시 중구 공평로100-13,대구광역시 중구 동인동1가 93,쓰레기단속,1,50.0,시청시티타운앞,3.0,201006,053-661-3281,35.87290163,128.6020576,2019-06-14,3410000,대구광역시 중구
3099,대구광역시 중구청,대구광역시 중구 신암로 6,대구광역시 중구 동인동1가 362,쓰레기단속,1,50.0,삼승슈퍼타운 앞,3.0,201611,053-661-3281,35.87308391,128.6051436,2019-06-14,3410000,대구광역시 중구
3100,대구광역시 중구청,대구광역시 중구 명덕로47길6,대구광역시 중구 대봉동 590-442,쓰레기단속,1,50.0,또와슈퍼 밑,3.0,201603,053-661-3281,35.8569109,128.5953507,2019-06-14,3410000,대구광역시 중구
3101,대구광역시 중구청,대구광역시 중구 국채보상로143길 79-10,대구광역시 중구 동인동3가 271-52,쓰레기단속,1,50.0,랑스빌 앞,3.0,201603,053-661-3281,35.87257788,128.60821140000002,2019-06-14,3410000,대구광역시 중구
3102,대구광역시 중구청,대구광역시 중구 명륜로119,대구광역시 중구 봉산동 238-3,쓰레기단속,1,50.0,향교밑화단,3.0,201603,053-661-3281,35.85988736,128.5973189,2019-06-14,3410000,대구광역시 중구
3103,대구광역시 중구청,대구광역시 중구 달구벌대로447길44-16,대구광역시 중구 삼덕동3가 268-3,쓰레기단속,1,50.0,금빛하우스,3.0,201603,053-661-3281,35.86405507,128.6086015,2019-06-14,3410000,대구광역시 중구
3104,대구광역시 중구청,대구광역시 중구 태평로 283-14,대구광역시 중구 동인동3가 271-6,쓰레기단속,1,50.0,대성탁자 옆,3.0,201603,053-661-3281,35.87361558,128.6085114,2019-06-14,3410000,대구광역시 중구
3105,대구광역시 중구청,대구광역시 중구 대봉로202-1,대구광역시 중구 대봉동 131-22,쓰레기단속,1,50.0,청운숯불,3.0,201307,053-661-3281,35.85684871,128.6021905,2019-06-14,3410000,대구광역시 중구
3106,대구광역시 중구청,대구광역시 중구 큰장로12길26,대구광역시 중구 대신동 1636,쓰레기단속,1,50.0,영남슈퍼,3.0,201611,053-661-3281,35.86507446,128.5752017,2019-06-14,3410000,대구광역시 중구
3107,대구광역시 중구청,대구광역시 중구 명륜로68,대구광역시 중구 남산동 698-51,쓰레기단속,1,50.0,신세명약국,3.0,201603,053-661-3281,35.86138135,128.5917606,2019-06-14,3410000,대구광역시 중구
3108,대구광역시 중구청,대구광역시 중구 달성로22길 78,대구광역시 중구 수창동 91-9,쓰레기단속,1,50.0,영성슈퍼,3.0,201611,053-661-3281,35.87453678,128.586408,2019-06-14,3410000,대구광역시 중구
3109,대구광역시 중구청,대구광역시 중구 태평로 51길 50,대구광역시 중구 동인동3가 271-221,쓰레기단속,1,50.0,"안일빌라,분도석유",3.0,201307,053-661-3281,35.87365277,128.60788770000002,2019-06-14,3410000,대구광역시 중구
3110,대구광역시 중구청,대구광역시 중구 관덕정길 77,대구광역시 중구 남산동 614-18,쓰레기단속,1,50.0,남산목욕탕앞,3.0,201611,053-661-3281,35.86221084,128.5911838,2019-06-14,3410000,대구광역시 중구
3111,대구광역시 중구청,대구광역시 중구 남산로6안길14-1,대구광역시 중구 남산동 2210-74,쓰레기단속,1,50.0,남산3동 경로당 인근,3.0,201307,053-661-3281,35.85840604,128.5856083,2019-06-14,3410000,대구광역시 중구
3112,부산광역시 사하구청,부산광역시 사하구 낙동대로451번길 21,부산광역시 사하구 하단동 619-10,생활방범,1,200.0,360도전방면,30.0,201411,051-220-4341,35.10422644,128.9698378,2020-03-17,3340000,부산광역시 사하구
3113,부산광역시 사하구청,부산광역시 사하구 낙동대로535번길 34,부산광역시 사하구 하단동 487-5,생활방범,1,200.0,360도전방면,30.0,201411,051-220-4341,35.1114039,128.9627816,2020-03-17,3340000,부산광역시 사하구
3114,부산광역시 사하구청,부산광역시 사하구 다대로83번길 50,부산광역시 사하구 신평동 100-15,생활방범,1,200.0,360도전방면,30.0,201411,051-220-4341,35.09353942,128.9805687,2020-03-17,3340000,부산광역시 사하구
3115,부산광역시 사하구청,부산광역시 사하구 다대로 393,부산광역시 사하구 다대동 82-5,생활방범,1,200.0,360도전방면,30.0,201411,051-220-4341,35.06793257,128.9791764,2020-03-17,3340000,부산광역시 사하구
3116,부산광역시 사하구청,부산광역시 사하구 감천로37번길 16,부산광역시 사하구 감천동 667-1,생활방범,1,200.0,360도전방면,30.0,201411,051-220-4341,35.09180254,128.9967791,2020-03-17,3340000,부산광역시 사하구
3117,부산광역시 사하구청,부산광역시 사하구 감천로73번길 40,부산광역시 사하구 감천동 633-2,생활방범,1,200.0,360도전방면,30.0,201411,051-220-4341,35.09130383,129.00041399999998,2020-03-17,3340000,부산광역시 사하구
3118,부산광역시 사하구청,부산광역시 사하구 낙동대로457번길 32,부산광역시 사하구 하단동 616-15,생활방범,1,200.0,360도전방면,30.0,201411,051-220-4341,35.1049704,128.96698370000001,2020-03-17,3340000,부산광역시 사하구
3119,부산광역시 사하구청,부산광역시 사하구 낙동대로536번길 18,부산광역시 사하구 하단동 496-3,생활방범,1,200.0,360도전방면,30.0,201411,051-220-4341,35.11214451,128.9659935,2020-03-17,3340000,부산광역시 사하구
3120,부산광역시 사하구청,부산광역시 사하구 낙동남로1373번길 24,부산광역시 사하구 하단동 517-1,생활방범,1,200.0,360도전방면,30.0,201411,051-220-4341,35.10757876,128.96204550000002,2020-03-17,3340000,부산광역시 사하구
3121,부산광역시 사하구청,부산광역시 사하구 신산북로57번길 6,부산광역시 사하구 신평동 290-1,생활방범,1,200.0,360도전방면,30.0,201411,051-220-4341,35.09132845,128.9708144,2020-03-17,3340000,부산광역시 사하구
3122,부산광역시 사하구청,부산광역시 사하구 하신중앙로 180-6,부산광역시 사하구 신평동 408-8,생활방범,1,200.0,360도전방면,30.0,201411,051-220-4341,35.0951705,128.96265630000002,2020-03-17,3340000,부산광역시 사하구
3123,부산광역시 사하구청,부산광역시 사하구 다대로277번길 96,부산광역시 사하구 장림동 26-2,생활방범,1,200.0,360도전방면,30.0,201411,051-220-4341,35.07572341,128.9810788,2020-03-17,3340000,부산광역시 사하구
3124,부산광역시 사하구청,부산광역시 사하구 감천로178번길 34,부산광역시 사하구 감천동 264-5,생활방범,1,200.0,360도전방면,30.0,201411,051-220-4341,35.08234491,129.0078928,2020-03-17,3340000,부산광역시 사하구
3125,부산광역시 사하구청,부산광역시 사하구 원양로356번길 107,부산광역시 사하구 감천동 316-8,생활방범,1,200.0,360도전방면,30.0,201411,051-220-4341,35.08070344,129.0101644,2020-03-17,3340000,부산광역시 사하구
3127,부산광역시 사하구청,부산광역시 사하구 승학로 172,부산광역시 사하구 괴정동 1082-15,생활방범,1,200.0,360도전방면,30.0,201411,051-220-4341,35.10103609,128.98427809999998,2020-03-17,3340000,부산광역시 사하구
3128,부산광역시 사하구청,부산광역시 사하구 승학로31번길 1,부산광역시 사하구 당리동 309-5,생활방범,1,200.0,360도전방면,30.0,201411,051-220-4341,35.10697946,128.9727443,2020-03-17,3340000,부산광역시 사하구
3129,부산광역시 사하구청,부산광역시 사하구 낙동대로520번길 11,부산광역시 사하구 하단동 496-30,생활방범,1,200.0,360도전방면,30.0,201411,051-220-4341,35.11112251,128.96642020000002,2020-03-17,3340000,부산광역시 사하구
